{
  "hotpots": [
    {
      "name":"東海老牌石頭火鍋",
      "address":"台中市龍井區新興路51-2號",
      "phone":"04-2652-9181",
      "latitude": "24.181396",
      "longitude": "120.586875",
      "time": "1300-15:99"
    },
    {
      "name": "台江北麻辣臭豆腐(東海店)",
      "address": "台中市龍井區東興巷12號",
      "phone": "0988-929-156",
      "latitude": "24.181345",
      "longitude": "120.593074",
      "time": "1300-1599"
    },
    {
      "name": "8鍋臭臭鍋東海店",
      "address": "台中市龍井區台灣大道五段3巷30弄12號",
      "phone": "04-2652-3107",
      "latitude": "24.182438",
      "longitude": "120.592122",
      "time": "1300-1599"
    },
    {
      "name": "板田精緻小火鍋咖啡",
      "address": "台中市龍井區藝術街15巷25號",
      "phone": "04-2652-3930",
      "latitude": "24.186913",
      "longitude": "120.595158",
      "time": "1300-1599"
    },
    {
      "name": "老先覺麻辣鍋 台中忠勇店",
      "address": "台中市南屯區忠勇路105之27號",
      "phone": "04-2380-1970",
      "latitude": "24.152018",
      "longitude": "120.615867",
      "time": "11:30–23:00"
    },
    {
      "name": "五路鍋聖",
      "address": "台中市南屯區永春南路80號",
      "phone": "04-2380-5153",
      "latitude": "24.138547",
      "longitude": "120.611406",
      "time": "11:00–14:00,17:00–23:00"
    },
    {
      "name": "玉麒麟臭臭鍋 嶺東店",
      "address": "台中市南屯區永春南路82巷20號",
      "phone": "04-2380-5051",
      "latitude": "24.139014",
      "longitude": "120.611039",
      "time": "11:00–14:00,17:00–22:00"
    },
    {
      "name": "拾七石頭火鍋",
      "address": "台中市南屯區永春東七路855號",
      "phone": "04-2386-2147",
      "latitude": "24.149180",
      "longitude": "120.633313",
      "time": "11:00–02:00"
    },
    {
      "name": "石二鍋 黎民店",
      "address": "台中市南屯區黎明路二段216號",
      "phone": "04-2382-1988",
      "latitude": "24.147121",
      "longitude": "120.636198",
      "time": "11:30–14:30,17:00–22:00"
    },
    {
      "name": "阿官火鍋專家 朝富店",
      "address": "台中市西屯區朝富路62號",
      "phone": "04-2258-3823",
      "latitude": "24.166212",
      "longitude": "120.637202",
      "time": "11:00–00:00"
    },
    {
      "name": "這一鍋 朝富殿",
      "address": "台中市西屯區朝富路36號",
      "phone": "04-3609-0088",
      "latitude": "24.166901",
      "longitude": "120.637688",
      "time": "11:30–03:00"
    },
    {
      "name": "悅上引海鮮和牛鍋物",
      "address": "台中市西屯區朝富路116號",
      "phone": "04-2252-5555",
      "latitude": "24.165550",
      "longitude": "120.636782",
      "time": "11:00–00:00"
    },
    {
      "name": "老先覺麻辣窯燒鍋 朝馬店",
      "address": "台中市西屯區黎明路三段56號",
      "phone": "04-2708-1217",
      "latitude": "24.172321",
      "longitude": "120.637415",
      "time": "11:30–14:00,17:00–22:00"
    },
    {
      "name": "台北江麻辣臭豆腐火鍋 市政店",
      "address": "台中市西屯區市政路590號",
      "phone": "0976-907-618",
      "latitude": "24.161599",
      "longitude": "120.634118",
      "time": "10:00–23:00"
    },
    {
      "name": "圳 關東煮.火鍋.泡麵",
      "address": "台中市西屯區河南路二段515號",
      "phone": "04-2452-3582",
      "latitude": "24.168249",
      "longitude": "120.641645",
      "time": "12:00–21:00"
    },
    {
      "name": "個人煮義精緻火鍋",
      "address": "台中市南屯區大墩十一街559號",
      "phone": "04-2381-8936",
      "latitude": "24.148565",
      "longitude": "120.637094",
      "time": "11:00–14:00,17:00–22:00"
    },
    {
      "name": "源鍋",
      "address": "台中市南屯區公益路二段737號",
      "phone": "04-2389-9895",
      "latitude": "24.150760",
      "longitude": "120.630536",
      "time": "11:00–14:00,17:00–23:30"
    },
    {
      "name": "千葉火鍋文心尊爵館",
      "address": "台中市南屯區文心路一段29號",
      "phone": "04-2475-9158",
      "latitude": "24.138946",
      "longitude": "120.646396",
      "time": "11:00–23:00"
    },
    {
      "name": "灰鴿/鍋 南屯店",
      "address": "台中市南屯區永春東七路968-3號",
      "phone": "04-2258-7111",
      "latitude": "24.151822",
      "longitude": "120.633930",
      "time": "11:00–14:30,17:00–00:00"
    },
    {
      "name": "春花秋實海鮮和牛鍋物",
      "address": "台中市南屯區永春東七路845號",
      "phone": "04-2380-3977",
      "latitude": "24.148903",
      "longitude": "120.633438",
      "time": "11:30–00:00"
    },
    {
      "name": "偈亭泡菜鍋 一中店",
      "address": "台中市北區三民路三段106巷13-1號",
      "phone": "04-2227-2377",
      "latitude": "24.149339",
      "longitude": "120.684540",
      "time": "12:00–22:00"
    },
    {
      "name": "聚北海道昆布鍋 大墩店",
      "address": "台中市南屯區台中市南屯區大墩路533號",
      "phone": "04-2329-0001",
      "latitude": "24.149637",
      "longitude": "120.649656",
      "time": "11:30–14:30,17:30–22:00"
    },
    {
      "name": "良沐鍋物",
      "address": "台中市南屯區東興路二段265號",
      "phone": "04-2475-6233",
      "latitude": "24.143472",
      "longitude": "120.652906",
      "time": "11:30–14:00,17:30–00:00"
    },
    {
      "name": "石二鍋 文心店",
      "address": "台中市南屯區台中市南屯區文心路一段521號",
      "phone": "04-2254-0911",
      "latitude": "24.153924",
      "longitude": "120.646406",
      "time": "11:30–22:30"
    },
    {
      "name": "麋鹿の鍋物",
      "address": "台中市南屯區永春東七路655號",
      "phone": "04-2386-0951",
      "latitude": "24.142020",
      "longitude": "120.633720",
      "time": "11:00–15:00,17:00–22:00"
    },
    {
      "name": "輕井澤鍋物 文心店",
      "address": "台中市南屯區文心路一段536號",
      "phone": "04-2310-9681",
      "latitude": "24.153468",
      "longitude": "120.647072",
      "time": "11:00–02:00"
    },
    {
      "name": "鼎王麻辣鍋 公益店",
      "address": "台中市南屯區公益路二段42號",
      "phone": "04-2326-1718",
      "latitude": "24.151113",
      "longitude": "120.651301",
      "time": "11:30–06:00"
    },
    {
      "name": "Beef King 鍋物",
      "address": "台中市南屯區公益路二段935號",
      "phone": "04-2389-7555",
      "latitude": "24.151518",
      "longitude": "120.626952",
      "time": "11:30–22:30"
    },
    {
      "name": "肉多多火鍋專賣店 公益店",
      "address": "台中市南屯區公益路二段128號",
      "phone": "04-2320-2499",
      "latitude": "24.151018",
      "longitude": "120.648884",
      "time": "11:30–00:00"
    },
    {
      "name": "石研室石頭火鍋 勤美店",
      "address": "台中市西區公正路99號",
      "phone": "04-2302-/0067",
      "latitude": "24.148978",
      "longitude": "120.663198",
      "time": "11:30–23:30"
    },
    {
      "name": "一葉知秋汕頭火鍋",
      "address": "台中市西區華美街416號",
      "phone": "04-2328-0553",
      "latitude": "24.153868",
      "longitude": "120.659279",
      "time": "11:30–22:00"
    },
    {
      "name": "食藝石頭火鍋",
      "address": "台中市西區梅川西路二段33號",
      "phone": "0906-397-010",
      "latitude": "24.151823",
      "longitude": "120.672561",
      "time": "17:00–22:00"
    },
    {
      "name": "阿里郎迷你火鍋",
      "address": "台中市西區梅川西路一段84號",
      "phone": "04-2302-8897",
      "latitude": "24.145808",
      "longitude": "120.669497",
      "time": "11:30–14:00,17:00–21:00"
    },
    {
      "name": "小鍋mini hotpot",
      "address": "台中市中區民權路212號號",
      "phone": "04-2222-9992",
      "latitude": "24.143088",
      "longitude": "120.674164",
      "time": "11:30–15:00,17:00–02:00"
    },
    {
      "name": "肉多多火鍋專賣店 美村店",
      "address": "403台中市西區美村路一段36號",
      "phone": "04-2325-2525",
      "latitude": "24.153910",
      "longitude": "120.661571",
      "time": "11:30–00:00"
    },
    {
      "name": "阿官火鍋專家 精誠店",
      "address": "台中市西區大隆路2號",
      "phone": "04-2319-3085",
      "latitude": "24.154936",
      "longitude": "120.655587",
      "time": "11:30–23:00"
    },
    {
      "name": "初 鍋物",
      "address": "台中市西區五權西五街26巷11號",
      "phone": "04-2376-1986",
      "latitude": "24.138649",
      "longitude": "120.659040",
      "time": "11:30–15:00,17:30–22:00"
    },
    {
      "name": "大樂鍋精緻鍋物專賣店",
      "address": "台中市南屯區東興路二段346號",
      "phone": "04-2473-6513",
      "latitude": "24.144655",
      "longitude": "120.653111",
      "time": "11:30–14:00,17:00–22:30"
    },
    {
      "name": "老豆府麻辣火鍋",
      "address": "台中市西屯區東興路三段299號",
      "phone": "04-2326-8655",
      "latitude": "24.156044",
      "longitude": "120.653803",
      "time": "11:30–02:00"
    },
    {
      "name": "台灣陳沙茶火鍋",
      "address": "台中市中區台灣大道一段81巷23號",
      "phone": "04-2227-1304",
      "latitude": "24.138738",
      "longitude": "120.683173",
      "time": "17:00–23:00"
    },
    {
      "name": "深紅（昇鴻）汕頭鍋物",
      "address": "台中市西區美村路一段602號",
      "phone": "04-2378-5378",
      "latitude": "24.137438",
      "longitude": "120.661451",
      "time": "11:00–14:00,16:30–23:00"
    },
    {
      "name": "偈亭泡菜鍋 雙十店",
      "address": "台中市北區雙十路一段89號",
      "phone": "04-2225-9397",
      "latitude": "24.146549",
      "longitude": "120.686036",
      "time": "11:30–22:00"
    },
    {
      "name": "联亭泡菜鍋 雙十店",
      "address": "台中市北區育才南街2之1號1樓",
      "phone": "04-2225-7170",
      "latitude": "24.148078",
      "longitude": "120.686561",
      "time": "11:00–22:30"
    },
    {
      "name": "寧記鴛鴦麻辣火鍋 台中車站店",
      "address": "台中市中區民權路60號",
      "phone": "04-2229-1278",
      "latitude": "24.137284",
      "longitude": "120.680970",
      "time": "11:30–14:30,17:00–23:30"
    },
    {
      "name": "老舅家鄉味酸菜白肉鍋",
      "address": "台中市東區忠孝路282號",
      "phone": "04-2280-2888",
      "latitude": "24.131460",
      "longitude": "120.686562",
      "time": "11:30–14:00,17:00–22:00"
    },
    {
      "name": "小園迷你火鍋 忠孝店",
      "address": "台中市南區忠孝路218號",
      "phone": "04-2285-6318",
      "latitude": "24.130593",
      "longitude": "120.684484",
      "time": "17:00–03:00"
    },
    {
      "name": "大口平價火鍋 忠孝店",
      "address": "台中市南區忠孝路178號",
      "phone": "04-2285-3059",
      "latitude": "24.129868",
      "longitude": "120.682749",
      "time": "11:00–23:00"
    },
    {
      "name": "帝一火鍋店",
      "address": "台中市南區忠孝路80號",
      "phone": "04-2286-1127",
      "latitude": "24.128484",
      "longitude": "120.679633",
      "time": "17:30–01:30"
    },
    {
      "name": "一級棒臭臭鍋 忠孝店",
      "address": "台中市南區忠孝路161之3號",
      "phone": "04-2285-9236",
      "latitude": "24.129935",
      "longitude": "120.682536",
      "time": "11:00–00:00"
    },
    {
      "name": "藍象廷泰鍋 中友店",
      "address": "台中市北區三民路三段161號號中友百貨C棟15樓",
      "phone": "04-2225-9610",
      "latitude": "24.152131",
      "longitude": "120.684921",
      "time": "11:00–21:30"
    },
    {
      "name": "鼎王麻辣鍋 漢口店",
      "address": "台中市北區漢口路四段385號",
      "phone": "04-2237-5959",
      "latitude": "24.16721",
      "longitude": "120.684185",
      "time": "11:30–02:30"
    },
    {
      "name": "嵐田麻辣火鍋",
      "address": "台中市北區五常街58號",
      "phone": "04-2202-6266",
      "latitude": "24.154021",
      "longitude": "120.680815",
      "time": "11:00–14:00,17:00–22:00"
    },
    {
      "name": "鼎王麻辣鍋 精誠店",
      "address": "台中市西屯區精誠路12號",
      "phone": "04-2329-6828",
      "latitude": "24.157521",
      "longitude": "120.657315",
      "time": "11:30–02:30"
    },
    {
      "name": "十八梯麻辣鍋",
      "address": "台中市西區精誠路41號",
      "phone": "04-2319-9032",
      "latitude": "24.153662",
      "longitude": "120.655190",
      "time": "11:00–07:00"
    },
    {
      "name": "陳師傅麻辣火鍋",
      "address": "台中市北區五權路286號",
      "phone": "04-2201-5537",
      "latitude": "24.151550",
      "longitude": "120.678518",
      "time": "11:30–02:00"
    },
    {
      "name": "老四川巴蜀麻辣燙 公益店",
      "address": "台中市西區公益路343號",
      "phone": "04-2319-8789",
      "latitude": "24.150718",
      "longitude": "120.655341",
      "time": "11:30–07:00"
    },
    {
      "name": "牧沐苑精緻鍋物",
      "address": "台中市西區台灣大道二段99巷3號",
      "phone": "04-2301-1540",
      "latitude": "24.149439",
      "longitude": "120.670598",
      "time": "11:30–14:00,17:30–22:00"
    },
    {
      "name": "滿堂紅麻辣鴛鴦鍋 台中廣三店",
      "address": "台中市西區臺灣大道二段459號14樓",
      "phone": "04-2328-6966",
      "latitude": "24.155474",
      "longitude": "120.661887",
      "time": "10:30–22:00"
    },
    {
      "name": "小蒙牛頂級麻辣鴛鴦火鍋 中港店",
      "address": "台中市西區台灣大道二段285號",
      "phone": "04-2320-8800",
      "latitude": "24.153049",
      "longitude": "120.666462",
      "time": "11:30–23:00"
    },
    {
      "name": "麻辣人家",
      "address": "台中市北區五常街292號",
      "phone": "04-2202-2346",
      "latitude": "24.160484",
      "longitude": "120.680044",
      "time": "11:00–00:30"
    },
    {
      "name": "小蒙牛頂級麻辣養生鍋  文心店",
      "address": "文心路四段北屯區台中市432號",
      "phone": "04-2237-0000",
      "latitude": "24.172463",
      "longitude": "120.681489",
      "time": "11:30–22:00"
    },
    {
      "name": "譚英雄麻辣鴛鴦火鍋 台中崇德店",
      "address": "台中市北屯區崇德路二段31號",
      "phone": "04-2236-1258",
      "latitude": "24.169617",
      "longitude": "120.685027",
      "time": "11:30–23:00"
    },
    {
      "name": "梁記麻辣火鍋",
      "address": "台中市北屯區旅順路二段116號",
      "phone": "04-2247-8362",
      "latitude": "24.174118",
      "longitude": "120.688686",
      "time": "17:00–23:00"
    },
    {
      "name": "小蒙牛頂級麻辣養生鍋 家樂福文心店",
      "address": "台中市南屯區文心路一段521號",
      "phone": "04-2259-1818",
      "latitude": "24.154089",
      "longitude": "120.646387",
      "time": "11:00–22:30"
    },
    {
      "name": "臥龍城巴蜀麻辣燙",
      "address": "台中市西屯區福科路839號",
      "phone": "04-2461-4128",
      "latitude": "24.187151",
      "longitude": "120.608005",
      "time": "11:30–15:00,17:00–22:30"
    },
    {
      "name": "肉多多火鍋 中科店",
      "address": "西屯區西屯區西屯路三段291號",
      "phone": "04-2461-0225",
      "latitude": "24.190369",
      "longitude": "120.611870",
      "time": "11:30–00:00"
    },
    {
      "name": "石二鍋 台中玉門店",
      "address": "台中市西屯區西屯路三段285號",
      "phone": "04-2461-3839",
      "latitude": "24.190288",
      "longitude": "120.612079",
      "time": "11:30–23:00"
    },
    {
      "name": "小肥牛蒙古鍋(中科店)",
      "address": "台中市西屯區西屯路三段269號",
      "phone": "04-2462-8811",
      "latitude": "24.190184",
      "longitude": "120.612691",
      "time": "11:30–22:00"
    },
    {
      "name": "萬客什鍋 青海店",
      "address": "台中市西屯區青海路二段246-15號",
      "phone": "04-2708-6722",
      "latitude": "24.172314",
      "longitude": "120.643128",
      "time": "17:00–04:00"
    },
    {
      "name": "養鍋",
      "address": "台中市西屯區至善路116號",
      "phone": "04-2452-7319",
      "latitude": "24.173661",
      "longitude": "120.641566",
      "time": "11:00–00:00"
    },
    {
      "name": "三角麻辣火鍋逢甲店",
      "address": "台中市西屯區西屯路二段260-18號",
      "phone": "04-2708-8116",
      "latitude": "24.173294",
      "longitude": "120.644929",
      "time": "11:30–14:30,16:30–00:00"
    },
    {
      "name": "大丸靚鍋 逢甲店",
      "address": "台中市西屯區福星路609號",
      "phone": "04-2451-7567",
      "latitude": "24.175066",
      "longitude": "120.646746",
      "time": "15:00–04:00"
    },
    {
      "name": "石二鍋 台中河南店",
      "address": "台中市西屯區河南路二段312號",
      "phone": "04-2452-2889",
      "latitude": "24.174509",
      "longitude": "120.648145",
      "time": "11:30–22:30"
    },
    {
      "name": "那個鍋 逢甲店",
      "address": "台中市西屯區福星路522號",
      "phone": "04-2708-6789",
      "latitude": "24.176868",
      "longitude": "120.645009",
      "time": "12:00–02:00"
    },
    {
      "name": "鬼椒麻辣王 台中店",
      "address": "台中市西屯區河南路二段443號",
      "phone": "04-2700-3388",
      "latitude": "24.170170",
      "longitude": "120.643151",
      "time": "11:30–01:00"
    },
    {
      "name": "台灣冒椒火辣 東海店",
      "address": "台中市西屯區台灣大道五段9號",
      "phone": "0958-683-578",
      "latitude": "24.182975",
      "longitude": "120.592682",
      "time": "17:00–00:00"
    },
    {
      "name": "那個鍋 東海店",
      "address": "台中市龍井區台灣大道五段3巷47號",
      "phone": "04-2631-7999",
      "latitude": "24.181807",
      "longitude": "120.592758",
      "time": "11:30–22:00"
    },
    {
      "name": "冬鼎爺臭臭鍋",
      "address": "台中縣龍井鄉新東村新興路5號",
      "phone": "04-2652-7755",
      "latitude": "24.180638",
      "longitude": "120.589011",
      "time": ""
    },
    {
      "name": "NoRi昆布海鮮鍋",
      "address": "台中市龍井區台灣大道五段3巷21號台灣42弄",
      "phone": "no phone",
      "latitude": "24.182194",
      "longitude": "120.591791",
      "time": "17:00–00:00"
    },
    {
      "name": "東籬鍋物",
      "address": "台中市龍井區台灣大道五段3巷30弄38號",
      "phone": "0934-033-758",
      "latitude": "24.182706",
      "longitude": "120.591549",
      "time": "11:30–13:30,17:00–21:00"
    },
    {
      "name": "昭日堂鍋煮",
      "address": "台中市南屯區大墩十一街345之一號二樓",
      "phone": "04-2258-0269",
      "latitude": "24.148776",
      "longitude": "120.644486",
      "time": "11:30–16:00,17:00–23:00"
    },
    {
      "name": "無老鍋 公益店",
      "address": "台中市南屯區公益路二段74號",
      "phone": "04-2319-1158",
      "latitude": "24.151038",
      "longitude": "120.650518",
      "time": "11:00–04:00"
    },
    {
      "name": "湯馥招牌石頭鍋 大業店",
      "address": "台中市南屯區大業路246號",
      "phone": "04-2328-9989",
      "latitude": "24.153632",
      "longitude": "120.648740",
      "time": "11:30–22:30"
    },
    {
      "name": "青森鍋物",
      "address": "台中市西區向上路一段109號",
      "phone": "04-2305-6688",
      "latitude": "24.146648",
      "longitude": "120.662327",
      "time": "11:30–00:00"
    }
  ],
  "bBQs":[
    {
      "name":"九五二七精緻燒烤",
      "address":"台中市西屯區惠中路36號",
      "phone":"04-2315-9527",
      "latitude": "24.167721",
      "longitude": "120.648062",
      "time": "18:00–02:00"
    },
    {
      "name":"田季發爺燒肉 逢甲店",
      "address":"台中市西屯區河南路二段256號",
      "phone":"04-2700-3689",
      "latitude": "24.175507",
      "longitude": "120.649756",
      "time": "12:00–02:00"
    },
    {
      "name":"潼阪燒烤",
      "address":"台中市西屯區文心路三段123號",
      "phone":"04-2314-5298",
      "latitude": "24.169083",
      "longitude": "120.655319",
      "time": "12:00–23:00"
    },
    {
      "name":"庫克燒烤BAR",
      "address":"台中市北區漢口路三段46號",
      "phone":"04-2299-2020",
      "latitude": "24.166755",
      "longitude": "120.667347",
      "time": "20:00–04:00"
    },
    {
      "name":"匠屋燒肉 朝馬館",
      "address":"台中市西屯區朝富二街20號",
      "phone":"04-2252-4758",
      "latitude": "24.168070",
      "longitude": "120.636747",
      "time": "17:00–01:00"
    },
    {
      "name":"肉肉燒肉店",
      "address":"台中市西屯區朝馬路70號",
      "phone":"04-2258-0090",
      "latitude": "24.168975",
      "longitude": "120.636733",
      "time": "11:30–14:30,17:00–00:00"
    },
    {
      "name":"市太郎燒肉",
      "address":"台中市西屯區朝富路2號",
      "phone":"04-3702-3399",
      "latitude": "24.168785",
      "longitude": "120.638856",
      "time": "11:30–15:00,17:30–23:00"
    },
    {
      "name":"屋馬燒肉 國安店",
      "address":"西屯區台中市國安一路168號",
      "phone":"04-2465-2222",
      "latitude": "24.192150",
      "longitude": "120.611520",
      "time": "11:00–00:00"
    },
    {
      "name":"笨豬跳韓式燒肉 台中店",
      "address":"台中市西屯區朝富路38號",
      "phone":"04-2254-8818",
      "latitude": "24.166883",
      "longitude": "120.637572",
      "time": "11:30–23:00"
    },
    {
      "name":"牧島燒肉 老虎城店",
      "address":"台中市西屯區河南路三段120號1樓",
      "phone":"04-2259-5915",
      "latitude": "24.164082",
      "longitude": "120.638130",
      "time": "11:00–22:00"
    },
    {
      "name":"茶六燒肉堂 朝富店",
      "address":"台中市西屯區朝富路258號",
      "phone":"04-2258-7126",
      "latitude": "24.163117",
      "longitude": "120.635231",
      "time": "11:00–02:00"
    },
    {
      "name":"屋馬燒肉 中港店",
      "address":"台中市西屯區台灣大道三段300號",
      "phone":"04-2312-1000",
      "latitude": "24.165760",
      "longitude": "120.644537",
      "time": "11:00–00:00"
    },
    {
      "name":"乾杯 中港店",
      "address":"台中市西屯區台灣大道三段301號13樓",
      "phone":"04-2259-6767",
      "latitude": "24.165233",
      "longitude": "120.643951",
      "time": "10:30–15:00,17:00–00:00"
    },
    {
      "name":"燒肉眾精緻炭火燒肉 文心店",
      "address":"台中市南屯區文心路一段546號",
      "phone":"04-2329-0288",
      "latitude": "24.154865",
      "longitude": "120.647004",
      "time": "12:00–23:00"
    },
    {
      "name":"悠熹燒肉YOSHI 公益店",
      "address":"台中市南屯區公益路二段230號",
      "phone":"04-2255-0307",
      "latitude": "24.151110",
      "longitude": "120.645345",
      "time": "11:30–15:00,17:30–21:00"
    },
    {
      "name":"森森燒肉 公益店",
      "address":"台中市南屯區公益路二段211號",
      "phone":"04-2255-3361",
      "latitude": "24.150568",
      "longitude": "120.646070",
      "time": "11:00–23:00"
    },
    {
      "name":"燒肉風間 Kazama",
      "address":"台中市南屯區公益路二段171-1號",
      "phone":"04-2328-1855",
      "latitude": "24.150666",
      "longitude": "120.647531",
      "time": "11:30–16:00,17:30–00:00"
    },
    {
      "name":"KAKOKAKO燒肉 公益店",
      "address":"台中市西區公益路294號",
      "phone":"04-2320-9111",
      "latitude": "24.151074",
      "longitude": "120.653181",
      "time": "12:00–01:00"
    },
    {
      "name":"塩選輕塩風燒肉",
      "address":"台中市西區公益路248號",
      "phone":"04-2328-0328",
      "latitude": "24.151064",
      "longitude": "120.655010",
      "time": "11:30–01:00"
    },
    {
      "name":"蔵玥和牛燒肉",
      "address":"台中市西區中美街399號",
      "phone":"04-2328-0521",
      "latitude": "24.152608",
      "longitude": "120.660134",
      "time": "17:00–23:30"
    },
    {
      "name":"Oh!Yaki燒肉 台中店",
      "address":"台中市西區明義街6號1樓",
      "phone":"04-2328-8105",
      "latitude": "24.155055",
      "longitude": "120.661127",
      "time": "17:30–00:30"
    },
    {
      "name":"匠屋燒肉 忠明店",
      "address":"台中市西區明義街74號",
      "phone":"04-2328-7703",
      "latitude": "24.155795",
      "longitude": "120.659498",
      "time": "17:00–00:00"
    },
    {
      "name":"屋馬燒肉 園邸店",
      "address":"西區公益路111號",
      "phone":"04-2301-3000",
      "latitude": "24.150726",
      "longitude": "120.666347",
      "time": "11:00–00:00"
    },
    {
      "name":"太郎日式燒肉",
      "address":"台中市西屯區東興路三段372號",
      "phone":"04-2319-9077",
      "latitude": "24.157573",
      "longitude": "120.655165",
      "time": "17:30–00:00,週一休"
    },
    {
      "name":"瑚同燒肉夜食",
      "address":"台中市西屯區東興路三段366號",
      "phone":"04-2328-5757",
      "latitude": "24.157506",
      "longitude": "120.655101",
      "time": "18:00–00:00"
    },
    {
      "name":"大股 熟成燒肉專門",
      "address":"台中市西屯區大安街23號",
      "phone":"04-2327-2300",
      "latitude": "24.157097",
      "longitude": "120.653370",
      "time": "17:30–23:00"
    },
    {
      "name":"紅大福 韓式烤肉店",
      "address":"台中市西區精明二街67號",
      "phone":"04-2322-0152",
      "latitude": "24.155849",
      "longitude": "120.654928",
      "time": "11:30–14:30,17:00–22:00"
    },
    {
      "name":"長月燒肉炭火料理酒亭",
      "address":"東興路三段西區台中市西區234號",
      "phone":"04-2310-0267",
      "latitude": "24.153104",
      "longitude": "120.653160",
      "time": "17:30–23:00"
    },
    {
      "name":"一頭牛日式燒肉 公益店",
      "address":"台中市南屯區公益路二段162號",
      "phone":"04-2320-6800",
      "latitude": "24.151003",
      "longitude": "120.647675",
      "time": "11:00–14:00,17:00–00:00"
    },
    {
      "name":"屋馬燒肉 文心店",
      "address":"台中市南屯區文心路一段436號",
      "phone":"04-2310-6699",
      "latitude": "24.151037",
      "longitude": "120.646982",
      "time": "11:00–00:00"
    },
    {
      "name":"烤狀猿日式炭火燒肉 文心店",
      "address":"台中市南屯區文心路一段431號",
      "phone":"04-2258-5333",
      "latitude": "24.150323",
      "longitude": "120.646607",
      "time": "11:30–01:00"
    },
    {
      "name":"愛羅武勇暴走燒肉 大墩店",
      "address":"台中市南屯區大墩十二街151號",
      "phone":"04-2327-0320",
      "latitude": "24.149896",
      "longitude": "120.651276",
      "time": "11:30–15:30,17:30–22:30,週二公休"
    },
    {
      "name":"赤坂屋燒肉店 台中店",
      "address":"台中市南屯區大進街377號",
      "phone":"04-2327-6666",
      "latitude": "24.149506",
      "longitude": "120.651126",
      "time": "11:30–14:30,17:30–23:30"
    },
    {
      "name":"炭火燒肉工房 美村店",
      "address":"台中市西區美村路一段412號",
      "phone":"04-2376-2988",
      "latitude": "24.143599",
      "longitude": "120.661497",
      "time": "11:30–15:00,17:30–23:00,週二公休"
    },
    {
      "name":"脂 板前 炭火燒肉",
      "address":"台中市西區五權六街61巷1號",
      "phone":"04-2371-2525",
      "latitude": "24.135913",
      "longitude": "120.662258",
      "time": "17:30–00:00"
    },
    {
      "name":"田季發爺燒肉 綠園道店",
      "address":"台中市西區五權六街59號",
      "phone":"04-2378-5321",
      "latitude": "24.135829",
      "longitude": "120.663218",
      "time": "11:30–00:00"
    },
    {
      "name":"羊角日式炭火烧肉",
      "address":"大墩路台中市南屯區大墩路78號",
      "phone":"04-2472-3898",
      "latitude": "24.138809",
      "longitude": "120.650028",
      "time": "18:00–23:00"
    },
    {
      "name":"瓦庫燒肉",
      "address":"台中市中區民權路16號",
      "phone":"04-2223-1188",
      "latitude": "24.136142",
      "longitude": "120.682159",
      "time": "17:30–00:00"
    },
    {
      "name":"牛角日式燒肉 秀泰站前店",
      "address":"台中市東區南京路76號S1館 2F",
      "phone":"04-2215-2502",
      "latitude": "24.140553",
      "longitude": "120.689698",
      "time": "11:00–22:00"
    },
    {
      "name":"板前燒肉 一徹",
      "address":"台中市中區民權路186巷227號",
      "phone":"04-2227-5353",
      "latitude": "24.143212",
      "longitude": "120.675446",
      "time": "18:00–00:00"
    },
    {
      "name":"櫻花田燒肉屋",
      "address":"台中市東區雙十路一段6之11號",
      "phone":"04-2213-9291",
      "latitude": "24.144288",
      "longitude": "120.686406",
      "time": "17:30–23:00"
    },
    {
      "name":"山鯨燒肉",
      "address":"台中市北區漢口路四段70-1號",
      "phone":"04-2291-8833",
      "latitude": "24.166862",
      "longitude": "120.675328",
      "time": "11:30–14:00,17:30–01:00"
    },
    {
      "name":"川原痴日式燒肉",
      "address":"台中市北區梅川西路三段66號",
      "phone":"04-2298-8100",
      "latitude": "24.165600",
      "longitude": "120.676918",
      "time": "18:00–01:00"
    },
    {
      "name":"姜虎東678白丁烤肉",
      "address":"台中市北區漢口路四段291號",
      "phone":"04-2237-8678",
      "latitude": "24.167190",
      "longitude": "120.680086",
      "time": "12:00–15:00,17:30–23:00"
    },
    {
      "name":"老井極上燒肉",
      "address":"台中市北屯區崇德路二段256號",
      "phone":"04-2247-8590",
      "latitude": "24.174643",
      "longitude": "120.686068",
      "time": "11:30–15:30,17:00–22:30"
    },
    {
      "name":"福軒燒烤",
      "address":"台中市北屯區崇德路二段239號",
      "phone":"04-2241-4467",
      "latitude": "24.175998",
      "longitude": "120.685258",
      "time": "16:30–01:00"
    },
    {
      "name":"乾杯 育才店",
      "address":"台中市北區育才北路69號",
      "phone":"04-2226-2588",
      "latitude": "24.153151",
      "longitude": "120.684033",
      "time": "11:00–15:00,17:00–23:00"
    },
    {
      "name":"牛角日本燒肉 台中大遠百店",
      "address":"台中市西屯區台灣大道三段251號",
      "phone":"04-2254-2623",
      "latitude": "24.164902",
      "longitude": "120.644713",
      "time": "11:00–22:00"
    },
    {
      "name":"柏 和牛燒肉",
      "address":"台中市西屯區大墩二十街167號",
      "phone":"04-2310-8667",
      "latitude": "24.160648",
      "longitude": "120.650563",
      "time": "17:30–00:00,週一公休"
    },
    {
      "name":"老乾杯 台中市政店",
      "address":"台中市西屯區文心路二段209號1樓",
      "phone":"04-2254-9777",
      "latitude": "24.159972",
      "longitude": "120.647625",
      "time": "11:30–15:00,17:00–23:00"
    },
    {
      "name":"原燒 市政北店",
      "address":"台中市西屯區市政北一路1號",
      "phone":"04-2258-6886",
      "latitude": "24.156655",
      "longitude": "120.646467",
      "time": "11:30–14:30,17:30–22:00"
    },
    {
      "name":"明炙道炭火燒肉",
      "address":"台中市南屯區河南路四段289號",
      "phone":"04-2251-5469",
      "latitude": "24.154170",
      "longitude": "120.636944",
      "time": "17:00–00:00"
    },
    {
      "name":"紅巢燒肉工房 公益旗艦店",
      "address":"台中市南屯區公益路二段836號",
      "phone":"04-2255-9258",
      "latitude": "24.151552",
      "longitude": "120.628124",
      "time": "11:00–15:00,17:00–22:00"
    }
    ],
  "sushi": 
  [
    {
      "name":"一貫手作壽司",
      "address":"台中市西屯區福林路471號",
      "phone":"04-2461-9398",
      "latitude": "24.191347",
      "longitude": "120.616521",
      "time": "11:00–14:00,17:00–21:00"
    },
    {
      "name":"合盛壽司",
      "address":"台中市西屯區西屯路三段158號",
      "phone":"0976-945-606",
      "latitude": "24.187702",
      "longitude": "120.619832",
      "time": "13:30–19:00"
    },
    {
      "name":"雙餘堂精緻壽司 中科店",
      "address":"台中市西屯區福順路311號",
      "phone":"04-2463-6777",
      "latitude": "24.183343",
      "longitude": "120.618439",
      "time": "09:30–19:30,星期日.ㄧ公休"
    },
    {
      "name":"MagicTouch點爭鮮 JMALL店",
      "address":"台中市西屯區台灣大道四段1038號",
      "phone":"04-2462-1819",
      "latitude": "24.183383",
      "longitude": "120.615415",
      "time": "11:00–21:30"
    },
    {
      "name":"爭鮮迴轉壽司 西屯特力屋店",
      "address":"台中市西屯區台灣大道四段528號2F",
      "phone":"04-2462-5687",
      "latitude": "24.178592",
      "longitude": "120.625284",
      "time": "11:00–21:00"
    },
    {
      "name":"藏壽司 台中福科路店",
      "address":"台中市西屯區福科路231號",
      "phone":"網路預約",
      "latitude": "24.181159",
      "longitude": "120.626649",
      "time": "11:00–22:00"
    },
    {
      "name":"爭鮮 逢甲店",
      "address":"台中市西屯區河南路二段358號",
      "phone":"04-2452-9565",
      "latitude": "24.173759",
      "longitude": "120.647136",
      "time": "17:30–02:00"
    },
    {
      "name":"鮨匠 逢甲店",
      "address":"台中市西屯區上石北二巷15號",
      "phone":"0988-085-551",
      "latitude": "24.172708",
      "longitude": "120.647171",
      "time": "11:30–14:00,17:30–01:00"
    },
    {
      "name":"長谷川壽司專賣店",
      "address":"台中市西屯區西屯路二段253巷2號",
      "phone":"04-2451-8811",
      "latitude": "24.171743",
      "longitude": "120.645914",
      "time": "11:00–14:00,17:00–21:00,週四公休"
    },
    {
      "name":"花輪壽司",
      "address":"台中市西屯區河南路二段459-1號",
      "phone":"04-2452-2499",
      "latitude": "24.169576",
      "longitude": "120.642608",
      "time": "10:00–19:30"
    },
    {
      "name":"榕壽司",
      "address":"台中市西屯區櫻花路131-2號",
      "phone":"0910-559-508",
      "latitude": "24.171351",
      "longitude": "120.650000",
      "time": "11:00–14:00,17:00–21:00,週一公休"
    },
    {
      "name":"一郎壽司",
      "address":"台中市西屯區台中市西屯區櫻花路87號",
      "phone":"04-2317-6207",
      "latitude": "24.170419",
      "longitude": "120.651379",
      "time": "11:00–14:00,17:00–21:00,週一公休"
    },
    {
      "name":"順億鮪魚專賣店 文心店",
      "address":"台中市西屯區文心路三段140號",
      "phone":"04-2311-1051",
      "latitude": "24.167884",
      "longitude": "120.654413",
      "time": "11:00–21:30"
    },
    {
      "name":"東屋壽司",
      "address":"台中市西屯區台灣大道三道251號",
      "phone":"No Phone",
      "latitude": "24.164112",
      "longitude": "120.644480",
      "time": "No Time"
    },
    {
      "name":"元手壽司 朝富店",
      "address":"台中市西屯區朝富路248號",
      "phone":"04-2258-1978",
      "latitude": "24.163629",
      "longitude": "120.635416",
      "time": "11:30–14:00,17:30–21:00"
    },
    {
      "name":"阿裕壽司",
      "address":"台中市北區西屯路一段361號",
      "phone":"04-2326-7531",
      "latitude": "24.161081",
      "longitude": "120.664736",
      "time": "10:00–20:00,星期一公休"
    },
    {
      "name":"藏壽司 台中中清店",
      "address":"台中市北屯區中清路二段777號",
      "phone":"網路預約",
      "latitude": "24.186758",
      "longitude": "120.663127",
      "time": "11:00–22:00"
    },
    {
      "name":"藏壽司 台中廣三SOGO店",
      "address":"台中市西區台灣大道二段459號",
      "phone":"網路預約",
      "latitude": "24.155629",
      "longitude": "120.661574",
      "time": "11:00–22:00"
    },
    {
      "name":"本田森壽司",
      "address":"台中市西區健行路1011號",
      "phone":"04-2323-5899",
      "latitude": "24.157070",
      "longitude": "120.663684",
      "time": "11:30–14:00,17:30–21:00"
    },
    {
      "name":"海將軍壽司向上店",
      "address":"台中市西區中美街226號",
      "phone":"0976-238-032",
      "latitude": "24.147832",
      "longitude": "120.660187",
      "time": "10:00–22:00"
    },
    {
      "name":"MagicTouch點爭鮮 勤美店",
      "address":"台中市西區公益路68號勤美天地B1",
      "phone":"04-2323-1977",
      "latitude": "24.151330",
      "longitude": "120.663740",
      "time": "11:00–21:30"
    },
    {
      "name":"鮨 鈴木幸介 Sushi",
      "address":"台中市西區華美街392號",
      "phone":"04-2320-2155",
      "latitude": "24.153438",
      "longitude": "120.659021",
      "time": "12:00–14:00,18:00–22:00,週一公休"
    },
    {
      "name":"順億鮪魚專賣店 忠明店",
      "address":"台中市西區忠明南路112-2號",
      "phone":"04-2326-6628",
      "latitude": "24.152912",
      "longitude": "120.657214",
      "time": "11:00–21:30"
    },
    {
      "name":"元手壽司 公益店",
      "address":"台中市西區東興路三段152號",
      "phone":"04-2326-7528",
      "latitude": "24.149678",
      "longitude": "120.653079",
      "time": "11:30–14:30,17:30–21:00"
    },
    {
      "name":"一本壽司",
      "address":"台中市南屯區大墩路",
      "phone":"0911-880-512",
      "latitude": "24.148038",
      "longitude": "120.649937",
      "time": "16:30–21:30,週日公休"
    },
    {
      "name":"爭鮮迴轉壽司 文心二店",
      "address":"台中市南屯區文心路一段71號",
      "phone":"04-2475-5436",
      "latitude": "24.140214",
      "longitude": "120.646446",
      "time": "11:00–21:30"
    },
    {
      "name":"大漁迴轉壽司",
      "address":"台中市南屯區文心南二路1號",
      "phone":"04-2471-9188",
      "latitude": "24.135751",
      "longitude": "120.649622",
      "time": "11:30–22:00"
    },
    {
      "name":"銘心割烹壽司",
      "address":"台中市南屯區大觀路66號",
      "phone":"04-3609-0099",
      "latitude": "24.145936",
      "longitude": "120.642689",
      "time": "11:30–14:00,17:30–21:00,週日公休"
    },
    {
      "name":"和壽司",
      "address":"台中市北區五權路301號",
      "phone":"04-2201-7520",
      "latitude": "24.151833",
      "longitude": "120.678511",
      "time": "11:30–14:30,17:30–21:30"
    },
    {
      "name":"爭鮮迴轉壽司 中友百貨店",
      "address":"台中市北區三民路三段161號中友百貨A棟",
      "phone":"04-2221-0656",
      "latitude": "24.152671",
      "longitude": "120.684990",
      "time": "11:00–21:30"
    },
    {
      "name":"爭鮮迴轉壽司 新時代店",
      "address":"台中市南區復興路四段186號B1",
      "phone":"04-2220-7029",
      "latitude": "24.136390",
      "longitude": "120.687706",
      "time": "11:00–21:30"
    },
    {
      "name":"真好吃壽司",
      "address":"401台中市東區台中路35號",
      "phone":"04-2220-2222",
      "latitude": "24.134814",
      "longitude": "120.682877",
      "time": "07:00–21:00"
    },
    {
      "name":"信兵衛 手做丼飯壽司",
      "address":"台中市北區成功路478號",
      "phone":"0987-292－354",
      "latitude": "24.147168",
      "longitude": "120.675932",
      "time": "11:30–14:00,17:30–22:00"
    },
    {
      "name":"米野木Komenoki日料·壽司",
      "address":"台中市西區梅川西路一段65號",
      "phone":"04-2371-0696",
      "latitude": "24.144003",
      "longitude": "120.668509",
      "time": "11:30–14:00,17:30–21:30"
    },
    {
      "name":"爭鮮迴轉壽司 漢口店",
      "address":"台中市北区崇德路一段579號",
      "phone":"04-2235-1381",
      "latitude": "24.166926",
      "longitude": "120.684956",
      "time": "11:00–21:30"
    },
    {
      "name":"裸一貫",
      "address":"404台中市北區五義街155號",
      "phone":"04-2201-2188",
      "latitude": "24.154113",
      "longitude": "120.680993",
      "time": "11:30–14:00,17:00–20:30,週四公休"
    }
   ],
    "ramen": [
    {
      "name":"麵武嵐",
      "address":"台中市西屯區西屯路三段82-1號",
      "phone":"0955-612-855",
      "latitude": "24.182904",
      "longitude": "120.632515",
      "time": "19:00–01:30,星期三.四公休"
    },
    {
      "name":"一本木拉麵 西屯總店",
      "address":"台中市西屯區福泰街107號",
      "phone":"0927-009-214",
      "latitude": "24.184896",
      "longitude": "120.622035",
      "time": "11:30–14:00,17:00–22:00"
    },
    {
      "name":"光麵拉麵店",
      "address":"台中市西屯區西屯路三段166之57號",
      "phone":"04-2462-0822",
      "latitude": "24.190128",
      "longitude": "120.613401",
      "time": "11:00–21:00"
    },
    {
      "name":"富士山55沾麵",
      "address":"台中市西屯區西屯路三段243號",
      "phone":"04-2461-5955",
      "latitude": "24.189846",
      "longitude": "120.613486",
      "time": "11:30–14:30,17:00–21:00"
    },
    {
      "name":"小弄拉麵 世貿店",
      "address":"台中市西屯區中工二路19號",
      "phone":"0960-319-789",
      "latitude": "24.181710",
      "longitude": "120.616637",
      "time": "11:00–14:30,17:00–20:30"
    },
    {
      "name":"金晴川拉麵",
      "address":"台中市龍井區新興路51巷11-1號",
      "phone":"0931-883-578",
      "latitude": "24.180485",
      "longitude": "120.586730",
      "time": "11:00–14:00,17:00–20:30,星期日.一公休"
    },
    {
      "name":"二代目食堂",
      "address":"台中市龍井區新興路51巷14號",
      "phone":"0968-816-568",
      "latitude": "24.180286",
      "longitude": "120.586552",
      "time": "11:30–14:00,17:00–21:00"
    },
    {
      "name":"味之初 拉麵",
      "address":"台中市龍井區新興路9巷20號",
      "phone":"04-2652-2697",
      "latitude": "24.180138",
      "longitude": "120.591055",
      "time": "11:30–14:00,17:00–21:00"
    },
    {
      "name":"大和拉麵 東海店",
      "address":"台中市龍井區新興路2巷2號",
      "phone":"04-2631-1434",
      "latitude": "24.181085",
      "longitude": "120.592327",
      "time": "12:00–14:30,17:00–21:30"
    },
    {
      "name":"東江家 風風亭",
      "address":"台中市龍井區藝術南街34號",
      "phone":"0919-041-931",
      "latitude": "24.187452",
      "longitude": "120.592822",
      "time": "12:00–14:30,17:30–20:30,星期一公休"
    },
    {
      "name":"MEN日式拉麵攤",
      "address":"台中市西屯區西墩南二巷3號",
      "phone":"0921-722-948",
      "latitude": "24.181501",
      "longitude": "120.636714",
      "time": "21:00–02:30,星期一.四公休"
    },
    {
      "name":"武壹拉麵",
      "address":"台中市西屯區西屯路二段296-4號",
      "phone":"04-2452-0211",
      "latitude": "24.178056",
      "longitude": "120.642084",
      "time": "11:30–14:30,17:00–21:00"
    },
    {
      "name":"御麵屋拉麵 逢甲壹號店",
      "address":"台中市西屯區華夏巷東五弄17號",
      "phone":"0989-365-803",
      "latitude": "24.179859",
      "longitude": "120.644853",
      "time": "11:30–21:00,週一公休"
    },
    {
      "name":"松鶴拉麵",
      "address":"台中市西屯區福星路328號",
      "phone":"04-2452-4767",
      "latitude": "24.181075",
      "longitude": "120.644885",
      "time": "11:00–23:00"
    },
    {
      "name":"巴士拉麵 漁藏",
      "address":"台中市西屯區福星北路20號",
      "phone":"NO Phone",
      "latitude": "24.183294",
      "longitude": "120.645040",
      "time": "17:30–01:00"
    },
    {
      "name":"麵屋虎徹 逢甲店",
      "address":"台中市西屯區福星北三街20號",
      "phone":"04-2452-9459",
      "latitude": "24.184514",
      "longitude": "120.645379",
      "time": "11:30–14:00,17:00–21:30"
    },
    {
      "name":"老王拉麵",
      "address":"台中市西屯區西安街197號",
      "phone":"04-2708-8336",
      "latitude": "24.181945",
      "longitude": "120.645612",
      "time": "11:00–14:00,17:00–20:00,星期五.六公休"
    },
    {
      "name":"大吉拉麵",
      "address":"台中市西屯區西安街184號",
      "phone":"04-2452-3811",
      "latitude": "24.181820",
      "longitude": "120.645758",
      "time": "11:00–21:00"
    },
    {
      "name":"九湯屋日本拉麵 逢甲一店",
      "address":"台中市西屯區文華路175號",
      "phone":"0971-233-678",
      "latitude": "24.181174",
      "longitude": "120.646173",
      "time": "11:00–21:00"
    },
    {
      "name":"川田屋 日式拉麵職人",
      "address":"台中市西屯區文華路151號",
      "phone":"0921-396-371",
      "latitude": "24.181043",
      "longitude": "120.646167",
      "time": "11:00–14:00,17:00–21:00"
    },
    {
      "name":"大丁日式豚骨拉麵 逢甲店",
      "address":"台中市西屯區文華路121之31號",
      "phone":"04-2451-9717",
      "latitude": "24.180282",
      "longitude": "120.646362",
      "time": "10:30–20:00"
    },
    {
      "name":"九州日式豚骨拉麵 逢甲店",
      "address":"台中市西屯區逢甲路20巷26-2號",
      "phone":"04-2702-0993",
      "latitude": "24.179894",
      "longitude": "120.645899",
      "time": "11:00–21:00,星期日公休"
    },
    {
      "name":"貳捌麵魂",
      "address":"台中市西屯區逢甲路19巷10號",
      "phone":"04-2452-7990",
      "latitude": "24.178335",
      "longitude": "120.645598",
      "time": "17:00–21:30"
    },
    {
      "name":"山形心心拉麵 逢甲店",
      "address":"台中市西屯區文華路71號",
      "phone":"04-2322-0232",
      "latitude": "24.177469",
      "longitude": "120.646351",
      "time": "17:00–01:00"
    },
    {
      "name":"飛鳥與海魚 白雞湯拉麵",
      "address":"台中市西屯區烈美街93號",
      "phone":"NO Phone",
      "latitude": "24.179672",
      "longitude": "120.642400",
      "time": "17:00–22:00,週日公休"
    },
    {
      "name":"豚村 逢甲店",
      "address":"台中市西屯區黎明路三段465-2號",
      "phone":"0920-487-902",
      "latitude": "24.184096",
      "longitude": "120.639465",
      "time": "17:30–00:00,星期三公休"
    },
    {
      "name":"江之戶拉麵",
      "address":"西屯區黎明路三段106號",
      "phone":"04-2707-6555",
      "latitude": "24.174760",
      "longitude": "120.637563",
      "time": "12:00–23:00,星期一公休"
    },
    {
      "name":"拉麵商店",
      "address":"台中市西屯區福上巷258號",
      "phone":"0931-603-713",
      "latitude": "24.174955",
      "longitude": "120.646199",
      "time": "17:00–00:00,星期一公休"
    },
    {
      "name":"火曜拉麺",
      "address":"台中市西屯區漢口路一段85號",
      "phone":"04-2314-3875",
      "latitude": "24.161856",
      "longitude": "120.656755",
      "time": "11:30–14:30,17:30–23:00"
    },
    {
      "name":"菘澤拉麵",
      "address":"台中市西屯區重慶路238號",
      "phone":"04-2316-2752",
      "latitude": "24.169351",
      "longitude": "120.660654",
      "time": "11:00–14:00,17:00–20:00,星期一公休"
    },
    {
      "name":"佐ㄧ拉麵",
      "address":"台中市西屯區漢口路二段223號",
      "phone":"04-2316-0663",
      "latitude": "24.166745",
      "longitude": "120.664291",
      "time": "11:30–14:00,17:00–21:00"
    },
    {
      "name":"御麵屋拉麵 金典店",
      "address":"台中市西區博館三街62巷23號",
      "phone":"0903-405-788",
      "latitude": "24.156844",
      "longitude": "120.663684",
      "time": "11:30–21:00,星期一公休"
    },
    {
      "name":"樂山娘日式札榥拉麵店",
      "address":"台中市西區華美街488號",
      "phone":"04-2325-8851",
      "latitude": "24.155780",
      "longitude": "120.660556",
      "time": "NO TIME"
    },
    {
      "name":"白鶴鬼拉麵",
      "address":"台中市西區中美街462號",
      "phone":"04-2328-1699",
      "latitude": "24.154720",
      "longitude": "120.660881",
      "time": "11:20–20:30"
    },
    {
      "name":"大海豚骨拉麵 台中店",
      "address":"台中市西區中美街448號",
      "phone":"04-2328-9845",
      "latitude": "24.154396",
      "longitude": "120.660702",
      "time": "11:00–14:00,17:00–21:00"
    },
    {
      "name":"一凜拉麵",
      "address":"台中市西區忠明南路46號",
      "phone":"04-2329-2992",
      "latitude": "24.155473",
      "longitude": "120.658462",
      "time": "11:30–14:30,18:00–21:00"
    },
    {
      "name":"御麵屋拉麵 公益店",
      "address":"台中市西區公益路102號",
      "phone":"NO Phone",
      "latitude": "24.151003",
      "longitude": "120.661437",
      "time": "11:30–00:00,星期一公休"
    },
    {
      "name":"京燒拉麵 公益店",
      "address":"台中市西區公益路100號",
      "phone":"NO Phone",
      "latitude": "24.150987",
      "longitude": "120.661856",
      "time": "20:30–00:00"
    },
    {
      "name":"信川屋博多豚骨拉麵店",
      "address":"台中市西區中興八巷24號",
      "phone":"0910-570-514",
      "latitude": "24.150397",
      "longitude": "120.662315",
      "time": "11:00–14:30,16:30–21:20"
    },
    {
      "name":"麵屋虎匠",
      "address":"台中市西區中美街331巷15號",
      "phone":"04-2301-7480",
      "latitude": "24.150100",
      "longitude": "120.659404",
      "time": "11:30–15:00,17:30–21:00,星期一公休"
    },
    {
      "name":"麵乃藏山田",
      "address":"台中市西區公正路170號",
      "phone":"NO Phone",
      "latitude": "24.149078",
      "longitude": "120.660581",
      "time": "11:30–13:30,17:00–21:30,星期一公休"
    },
    {
      "name":"雷亭拉麵 勤美店",
      "address":"台中市西區中興四巷15號",
      "phone":"NO Phone",
      "latitude": "24.148418",
      "longitude": "120.662516",
      "time": "17:30–22:30,星期一公休"
    },
    {
      "name":"鹿兒島拉麺居酒屋勘場",
      "address":"台中市西區向上北路149號",
      "phone":"04-2301-1168",
      "latitude": "24.147827",
      "longitude": "120.662624",
      "time": "11:30–14:00,18:00–21:00"
    },
    {
      "name":"勘黑豬肉拉麵",
      "address":"台中市西區向上北路149號",
      "phone":"NO Phone",
      "latitude": "24.147831",
      "longitude": "120.662810",
      "time": "10:00–22:00,星期一公休"
    },
    {
      "name":"九湯屋日式拉麵-西區中美店",
      "address":"台中市西區中美街244號",
      "phone":"04-2301-1579",
      "latitude": "24.148564",
      "longitude": "120.660221",
      "time": "11:00–22:00"
    },
    {
      "name":"拉麵小店らー麺 華美店",
      "address":"台中市西區華美街185號",
      "phone":"0928-215-430",
      "latitude": "24.146594",
      "longitude": "120.658770",
      "time": "18:00–23:00,星期四公休"
    },
    {
      "name":"赤鳥深夜炙燒拉麵",
      "address":"台中市西區向上南路一段99號",
      "phone":"04-2301-2134",
      "latitude": "24.145281",
      "longitude": "120.657965",
      "time": "17:00–00:00"
    },
    {
      "name":"小弄拉麵",
      "address":"台中市西區昇平街143號",
      "phone":"04-2301-5088",
      "latitude": "24.145508",
      "longitude": "120.659494",
      "time": "11:30–13:30,17:30–21:30"
    },
    {
      "name":"麵屋 零",
      "address":"台中市西區向上路一段170號",
      "phone":"04-2301-1312",
      "latitude": "24.146758",
      "longitude": "120.661094",
      "time": "11:30–14:30,17:30–21:00,星期三公休"
    },
    {
      "name":"升龍軒ラーメン",
      "address":"台中市西區精誠路389號",
      "phone":"04-2473-4387",
      "latitude": "24.142805",
      "longitude": "120.655221",
      "time": "11:30–13:30,17:30–22:00,星期一公休"
    },
    {
      "name":"禾豐手工拉麵",
      "address":"台中市北區北平路二段102之19號",
      "phone":"04-2292-7207",
      "latitude": "24.171363",
      "longitude": "120.676486",
      "time": "11:30–14:00,17:30–21:00"
    },
    {
      "name":"伊品拉麵",
      "address":"台中市北區北平路二段212號",
      "phone":"0971-281-580",
      "latitude": "24.171131",
      "longitude": "120.678939",
      "time": "11:00–13:30,17:00–20:30,週日公休"
    },
    {
      "name":"信香拉麵",
      "address":"台中市北屯區瀋陽路二段1號",
      "phone":"04-2247-5250",
      "latitude": "24.174008",
      "longitude": "120.680105",
      "time": "05:00–08:00,11:00–00:00"
    },
    {
      "name":"川澤拉麵",
      "address":"台中市北屯區梅川東路四段107號",
      "phone":"04-2247-5581",
      "latitude": "24.174643",
      "longitude": "120.680117",
      "time": "17:30–20:30,星期二公休"
    },
    {
      "name":"御麵屋拉麵 北平店",
      "address":"台中市北屯區北平路三段37號",
      "phone":"0900-473-829",
      "latitude": "24.171246",
      "longitude": "120.680745",
      "time": "11:30–21:00,星期一公休"
    },
    {
      "name":"幸花鷄白湯拉麵專門店 文昌店",
      "address":"台中市北屯區文昌三街145號",
      "phone":"04-2236-2241",
      "latitude": "24.171036",
      "longitude": "120.690121",
      "time": "17:00–23:00"
    },
    {
      "name":"丼川拉麵",
      "address":"台中市北屯區北平路四段68號",
      "phone":"0978-035-747",
      "latitude": "24.170380",
      "longitude": "120.690963",
      "time": "17:30–23:15"
    },
    {
      "name":"粋 日式拉麵 大連店",
      "address":"台中市北屯區大連路三段40號",
      "phone":"0989-383-343",
      "latitude": "24.175056",
      "longitude": "120.691722",
      "time": "18:00–00:00,星期二公休"
    },
    {
      "name":"佐野拉麵",
      "address":"台中市北屯區大連路三段125號",
      "phone":"04-2242-8341",
      "latitude": "24.174786",
      "longitude": "120.693984",
      "time": "11:00–14:00,17:00–20:00"
    },
    {
      "name":"九湯屋日本拉麵 北屯店",
      "address":"台中市北屯區興安路一段309-1號",
      "phone":"04-2243-5052",
      "latitude": "24.173726",
      "longitude": "120.694389",
      "time": "11:00–14:00,16:00–22:00"
    },
    {
      "name":"赤坂拉麵 崇德店",
      "address":"台中市北區崇德路一段524號",
      "phone":"04-2236-8168",
      "latitude": "24.166159",
      "longitude": "120.685227",
      "time": "11:30–15:00,17:30–21:00"
    },
    {
      "name":"麵屋田宗",
      "address":"台中市北區大義街137號",
      "phone":"NO Phone",
      "latitude": "24.162300",
      "longitude": "120.683611",
      "time": "11:30–14:30,17:30–21:30,星期一公休"
    },
    {
      "name":"海老崇德麵場",
      "address":"台中市北區崇德路一段266-2號",
      "phone":"0925-995-551",
      "latitude": "24.161646",
      "longitude": "120.685165",
      "time": "18:00–01:00,星期一公休"
    },
    {
      "name":"長綺拉麵",
      "address":"台中市北區榮華街132號",
      "phone":"04-2235-4838",
      "latitude": "24.163454",
      "longitude": "120.686737",
      "time": "11:00–14:00,17:00–21:00,星期五公休"
    },
    {
      "name":"驖人拉麵本舖",
      "address":"台中市北區梅川西路三段125號",
      "phone":"04-2206-2715",
      "latitude": "24.161764",
      "longitude": "120.676360",
      "time": "11:30–14:30,17:30–20:30"
    },
    {
      "name":"麵屋六花",
      "address":"台中市北區學士路236巷2號",
      "phone":"NO Phone",
      "latitude": "24.160767",
      "longitude": "120.681213",
      "time": "11:30–00:00"
    },
    {
      "name":"豚將日本拉麵 健行店",
      "address":"台中市北區健行路440號",
      "phone":"04-2235-0608",
      "latitude": "24.159241",
      "longitude": "120.681226",
      "time": "11:00–22:00"
    },
    {
      "name":"盡心亭Heart&soul",
      "address":"台中市北區五常街60號",
      "phone":"04-2206-0356",
      "latitude": "24.154055",
      "longitude": "120.680792",
      "time": "11:30–14:00,17:00–21:00,星期一公休"
    },
    {
      "name":"うし手工拉麵",
      "address":"台中市北區五權路480號",
      "phone":"0966-977-520",
      "latitude": "24.153092",
      "longitude": "120.682643",
      "time": "18:00–03:00,星期一公休"
    },
    {
      "name":"佐原拉麵",
      "address":"台中市北區五權路379號",
      "phone":"04-2202-1198",
      "latitude": "24.152907",
      "longitude": "120.680776",
      "time": "11:30–14:00,17:30–21:45,星期四公休"
    },
    {
      "name":"秘密日式拉麵攤",
      "address":"台中市中區公園路91號",
      "phone":"0976-099-177",
      "latitude": "24.145996",
      "longitude": "120.680023",
      "time": "18:00–01:00,週日公休"
    },
    {
      "name":"壽賀喜屋 中友百貨",
      "address":"台中市北區三民路三段161號b棟b3",
      "phone":"04-2226-7335",
      "latitude": "24.152082",
      "longitude": "120.684754",
      "time": "NO TIME"
    },
    {
      "name":"花月嵐拉麵 中友店",
      "address":"台中市北區三民路三段161號C棟B3",
      "phone":"04-2221-5252",
      "latitude": "24.152053",
      "longitude": "120.684722",
      "time": "10:30–22:00"
    },
    {
      "name":"九州日式豚骨拉麵 一中店",
      "address":"台中市北區三民路三段120巷1號",
      "phone":"04-2223-1383",
      "latitude": "24.150065",
      "longitude": "120.684510",
      "time": "11:00–20:00,週日公休"
    },
    {
      "name":"拉麵次郎長 一中店",
      "address":"台中市北區一中街96號1樓12櫃",
      "phone":"04-2229-5203",
      "latitude": "24.149351",
      "longitude": "120.685188",
      "time": "11:00–22:00"
    },
    {
      "name":"火曜二代目",
      "address":"台中市西區柳川西路二段192號",
      "phone":"04-2222-1270",
      "latitude": "24.141513",
      "longitude": "120.674772",
      "time": "11:20–14:00,17:30–22:00"
    },
    {
      "name":"赤坂豚骨拉麵",
      "address":"台中市西區金山路10-4號",
      "phone":"04-2225-3170",
      "latitude": "24.141690",
      "longitude": "120.671260",
      "time": "11:00–14:00,16:30–20:00"
    },
    {
      "name":"津 拉麵",
      "address":"台中市西區府後街31號",
      "phone":"04-2229-8623",
      "latitude": "24.137404",
      "longitude": "120.676262",
      "time": "11:20–14:00,16:30–19:30,星期一公休"
    },
    {
      "name":"有囍拉麵中山店",
      "address":"台中市中區中山路82號",
      "phone":"NO Phone",
      "latitude": "24.139166",
      "longitude": "120.681785",
      "time": "11:30–14:00,17:30–21:00,星期二公休"
    },
    {
      "name":"和風拉麵",
      "address":"台中市中區綠川西街59巷9號",
      "phone":"04-2223-1038",
      "latitude": "24.137380",
      "longitude": "120.681289",
      "time": "11:00–14:00,17:00–20:00"
    },
    {
      "name":"山本堂拉麵",
      "address":"台中市南區復興路三段399號",
      "phone":"04-2220-6193",
      "latitude": "24.133314",
      "longitude": "120.679813",
      "time": "11:00–14:30,16:00–20:00,星期四公休"
    },
    {
      "name":"狸匠拉麵 忠孝深夜拉麵",
      "address":"台中市東區忠孝路322-1號",
      "phone":"0976-519-257",
      "latitude": "24.132168",
      "longitude": "120.688392",
      "time": "17:00–01:00,星期三公休"
    },
    {
      "name":"拾玥拉麵 台中永春店",
      "address":"台中市南屯區永春東路115號",
      "phone":"0901-199-935",
      "latitude": "24.134717",
      "longitude": "120.652844",
      "time": "17:00–00:00,星期一公休"
    },
    {
      "name":"藤さん拉麵食堂",
      "address":"台中市西區南屯路一段224號",
      "phone":"0985-861-939",
      "latitude": "24.134802",
      "longitude": "120.655872",
      "time": "11:30–14:00,17:00–20:00"
    },
    {
      "name":"粋拉麵",
      "address":"台中市西區美村路二段17號",
      "phone":"0903-322-125",
      "latitude": "24.131884",
      "longitude": "120.661825",
      "time": "18:00–01:00,週二公休"
    },
    {
      "name":"味一番拉麵",
      "address":"台中市南屯區五權西路二段687-2號",
      "phone":"04-2383-4881",
      "latitude": "24.142025",
      "longitude": "120.638456",
      "time": "11:00–14:00,17:00–20:30,週日公休"
    }
  ],
  "brunch": [
    {
      "name":"肯丁堡手作早午餐",
      "address":"台中市龍井區台灣大道五段3巷42弄37號",
      "phone":"0983-897-929",
      "latitude": "24.182591",
      "longitude": "120.591059",
      "time": "07:00–14:00"
    },
    {
      "name":"初匠●出醬小廚私塾",
      "address":"台中市龍井區新興路47巷5號",
      "phone":"04-2652-9986",
      "latitude": "24.180432",
      "longitude": "120.587830",
      "time": "09:00–14:00,星期二公休"
    },
    {
      "name":"日安小砌。手作食堂",
      "address":"台中市龍井區新興路一巷22號",
      "phone":"04-2652-1665",
      "latitude": "24.181155",
      "longitude": "120.592710",
      "time": "10:00–19:30"
    },
    {
      "name":"碳早",
      "address":"台中市龍井區新興路9巷18號",
      "phone":"0908-657-576",
      "latitude": "24.180531",
      "longitude": "120.591217",
      "time": "07:00–15:00"
    },
    {
      "name":"濰克早午餐 東海店",
      "address":"台中市龍井區藝術街51號",
      "phone":"04-2633-8966",
      "latitude": "24.187803",
      "longitude": "120.593599",
      "time": "07:00–14:30,星期二公休"
    },
    {
      "name":"Cozy Life 舒適生活",
      "address":"台中市龍井區藝術街23號",
      "phone":"04-2631-5321",
      "latitude": "24.187555",
      "longitude": "120.594621",
      "time": "09:00–17:00"
    },
    {
      "name":"貝司特早午餐",
      "address":"台中市西屯區福聯街67號",
      "phone":"04-2461-2979",
      "latitude": "24.186804",
      "longitude": "120.608034",
      "time": "06:00–13:00"
    },
    {
      "name":"鏡好吃早午餐餐車",
      "address":"台中市西屯區福科路557巷3號",
      "phone":"0981-718-301",
      "latitude": "24.185403",
      "longitude": "120.616126",
      "time": "NO TIME"
    },
    {
      "name":"等待咖啡咖啡早午餐輕食",
      "address":"台中市西屯區永福路182巷3號",
      "phone":"04-2463-5671",
      "latitude": "24.186096",
      "longitude": "120.622024",
      "time": "08:00–20:00"
    },
    {
      "name":"早安公雞農場晨食 安和店",
      "address":"台中市西屯區安和路200號",
      "phone":"04-2462-0138",
      "latitude": "24.18419",
      "longitude": "120.626068",
      "time": "06:00–13:30"
    },
    {
      "name":"初，好食True House",
      "address":"台中市西屯區西屯路三段12號",
      "phone":"04-2222-1311",
      "latitude": "24.180403",
      "longitude": "120.638679",
      "time": "06:00–12:30"
    },
    {
      "name":"白米咖啡早午餐工坊",
      "address":"台中市西屯區至善路40號",
      "phone":"04-2451-0358",
      "latitude": "24.171181",
      "longitude": "120.639298",
      "time": "05:30–13:30"
    },
    {
      "name":"Return gourmet food 迴鲑",
      "address":"台中市西屯區杏林路83巷7號",
      "phone":"0968-955-088",
      "latitude": "24.168080",
      "longitude": "120.643114",
      "time": "09:30–17:30"
    },
    {
      "name":"臻品小屋早午餐",
      "address":"台中市西屯區弘孝路21號",
      "phone":"04-2451-7305",
      "latitude": "24.166690",
      "longitude": "120.644063",
      "time": "07:00–14:00"
    },
    {
      "name":"MEIJIBRUNCH 明治早午餐廚房",
      "address":"台中市西屯區弘孝路15號",
      "phone":"04-2452-6257",
      "latitude": "24.166475",
      "longitude": "120.643826",
      "time": "06:00–14:00,週四公休"
    },
    {
      "name":"吃光早餐",
      "address":"台中市西屯區惠中路98號",
      "phone":"04-2317-5298",
      "latitude": "24.166175",
      "longitude": "120.647197",
      "time": "07:00–14:00"
    },
    {
      "name":"樹兒早午餐",
      "address":"台中市西區博館路223號",
      "phone":"04-2314-8121",
      "latitude": "24.158758",
      "longitude": "120.661452",
      "time": "09:00–17:00"
    },
    {
      "name":"K.布朗 Brunch",
      "address":"台中市西屯區大墩十九街93號",
      "phone":"04-2320-2379",
      "latitude": "24.157034",
      "longitude": "120.654089",
      "time": "07:30–15:30"
    },
    {
      "name":"Solar Table 於光",
      "address":"台中市南屯區大進街697號",
      "phone":"04-2320-2302",
      "latitude": "24.156287",
      "longitude": "120.652218",
      "time": "08:00–16:30"
    },
    {
      "name":"栗子窩LeedsCaf'e",
      "address":"台中市西屯區永昌街80號",
      "phone":"04-2316-0609",
      "latitude": "24.169164",
      "longitude": "120.658123",
      "time": "10:00–15:00,週日公休"
    },
    {
      "name":"TRAVELER 旅行輕食餐酒館",
      "address":"台中市南屯區文心路一段538-1號",
      "phone":"04-2328-5439",
      "latitude": "24.153673",
      "longitude": "120.646905",
      "time": "10:00–22:00"
    },
    {
      "name":"傑米JME Brunch Box",
      "address":"台中市西區華美街380號",
      "phone":"04-2328-5537",
      "latitude": "24.152845",
      "longitude": "120.658941",
      "time": "09:00–16:00"
    },
    {
      "name":"H coffee brunch",
      "address":"台中市西區美村路一段99號",
      "phone":"04-2328-8919",
      "latitude": "24.152765",
      "longitude": "120.661756",
      "time": "07:30–18:00"
    },
    {
      "name":"田爺晴天屋早午餐",
      "address":"台中市西區中興街269號",
      "phone":"04-2326-3455",
      "latitude": "24.153312",
      "longitude": "120.662815",
      "time": "07:00–15:00,星期二公休"
    },
    {
      "name":"Funny Seals",
      "address":"台中市北區華中街56號",
      "phone":"04-2203-2688",
      "latitude": "24.158336",
      "longitude": "120.672136",
      "time": "08:00–17:00"
    },
    {
      "name":"三角函數複合式餐飲店 旗鑑店",
      "address":"台中市北區育德路211號",
      "phone":"04-2203-8059",
      "latitude": "24.157139",
      "longitude": "120.669534",
      "time": "07:00–15:00"
    },
    {
      "name":"50米深嵐博館店",
      "address":"台中市北區博館東街7號",
      "phone":"04-2326-2048",
      "latitude": "24.154323",
      "longitude": "120.666006",
      "time": "07:00–14:00"
    },
    {
      "name":"小家朝食",
      "address":"台中市西區大仁街46號",
      "phone":"04-2321-2216",
      "latitude": "24.153372",
      "longitude": "120.668824",
      "time": "09:00–17:00,星期三公休"
    },
    {
      "name":"光合作用精緻早午餐",
      "address":"台中市西區民生北路157號",
      "phone":"04-2301-4088",
      "latitude": "24.149968",
      "longitude": "120.668083",
      "time": "09:00–17:00"
    },
    {
      "name":"34巷 café",
      "address":"台中市西區模範街34巷10號",
      "phone":"04-2301-1519",
      "latitude": "24.148889",
      "longitude": "120.667191",
      "time": "09:30–20:30,星期二公休"
    },   
    {
      "name":"Oh! Sweet Diner早午餐",
      "address":"台中市西屯區大容西街53號",
      "phone":"04-2326-3013",
      "latitude": "24.156739",
      "longitude": "120.647342",
      "time": "10:00–18:00"
    },
    {
      "name":"默More",
      "address":"台中市西區模範街13巷3號",
      "phone":"04-2305-0067",
      "latitude": "24.148121",
      "longitude": "120.666308",
      "time": "06:00–13:00"
    },
    {
      "name":"BEAR&TACO 原食餐廳",
      "address":"台中市西區向上路一段79巷50號",
      "phone":"04-2301-2126",
      "latitude": "24.145473",
      "longitude": "120.664214",
      "time": "08:30–16:30,星期三公休"
    },
    {
      "name":"AM食光",
      "address":"台中市西區向上路一段79巷78號",
      "phone":"",
      "latitude": "24.144869",
      "longitude": "120.664276",
      "time": "06:30–14:30,星期二公休"
    },
    {
      "name":"帕斯托 ArtPasto",
      "address":"台中市西區向上路一段79巷84號",
      "phone":"04-2302-7581",
      "latitude": "24.144716",
      "longitude": "120.664100",
      "time": "09:00–21:00,星期三公休"
    },
    {
      "name":"早伴早餐",
      "address":"台中市西區五權一街104號",
      "phone":"04-2376-2816",
      "latitude": "24.139377",
      "longitude": "120.660803",
      "time": "08:00–16:00"
    },
    {
      "name":"Hoyo Cafe",
      "address":"台中市西區五權西二街34號",
      "phone":"04-2371-2022",
      "latitude": "24.138989",
      "longitude": "120.663796",
      "time": "08:30–16:00"
    },
    {
      "name":"尼克咖啡",
      "address":"台中市西區美村路一段575號",
      "phone":"04-2378-3161",
      "latitude": "24.139067",
      "longitude": "120.661775",
      "time": "07:00–21:00"
    },
    {
      "name":"Brunch&cafe 巴特2店",
      "address":"台中市西區五權西四街13巷10號",
      "phone":"04-2378-3007",
      "latitude": "24.139028",
      "longitude": "120.662171",
      "time": "08:00–17:00"
    },
    {
      "name":"田樂 小公園店",
      "address":"台中市西區大忠南街82巷36號",
      "phone":"04-2372-8672",
      "latitude": "24.138699",
      "longitude": "120.656131",
      "time": "10:00–18:00"
    },
    {
      "name":"肉窩咖啡 ZOU WOO KAFFEE",
      "address":"台中市西區美村路一段608巷4號",
      "phone":"04-2378-7515",
      "latitude": "24.137357",
      "longitude": "120.661202",
      "time": "09:00–17:00"
    },
    {
      "name":"Copper & Co. Café",
      "address":"台中市西區五權三街75號",
      "phone":"04-2375-7069",
      "latitude": "24.137942",
      "longitude": "120.662275",
      "time": "11:00–20:00"
    },
    {
      "name":"天晴611早午餐",
      "address":"台中市西區金山路6-1號1樓之1",
      "phone":"04-2223-3002",
      "latitude": "24.141947",
      "longitude": "120.671507",
      "time": "10:00–17:30"
    },
    {
      "name":"貓頭鷹吐司早午餐",
      "address":"台中市南屯區文心路一段211號一樓",
      "phone":"04-2380-0606",
      "latitude": "24.143596",
      "longitude": "120.646353",
      "time": "07:30–17:00"
    },
    {
      "name":"Heynuts 好堅果咖啡",
      "address":"台中市西區精誠六街15號",
      "phone":"04-2329-3210",
      "latitude": "24.155293",
      "longitude": "120.656813",
      "time": "09:00–17:00"
    },
    {
      "name":"田樂 學院店",
      "address":"台中市北區健行路425巷3號",
      "phone":"04-2234-3535",
      "latitude": "24.158801",
      "longitude": "120.681550",
      "time": "10:00–21:00"
    },
    {
      "name":"田樂 公正小巷店",
      "address":"台中市西區公正路128號",
      "phone":"04-2305-0507",
      "latitude": "24.149109",
      "longitude": "120.662070",
      "time": "11:00–21:30"
    },
    {
      "name":"貓爪子咖啡",
      "address":"台中市北區大德街131號",
      "phone":"04-2202-5268",
      "latitude": "24.160495",
      "longitude": "120.678476",
      "time": "11:00–20:00"
    },
    {
      "name":"米閃早餐B&B",
      "address":"台中市北區梅亭街382號",
      "phone":"04-2203-1198",
      "latitude": "24.160487",
      "longitude": "120.679865",
      "time": "08:00–17:00,星期二公休"
    },
    {
      "name":"G家噪咖 Brunch & Bar",
      "address":"台中市北區德化街360號",
      "phone":"0911-889-207",
      "latitude": "24.161697",
      "longitude": "120.681229",
      "time": "07:30–16:00"
    },
    {
      "name":"Coffee Melbourne",
      "address":"台中市北區進化北路338號",
      "phone":"04-2236-8825",
      "latitude": "24.163223",
      "longitude": "120.681308",
      "time": "08:00–15:00"
    },
    {
      "name":"暮香炭烤土司 太原店",
      "address":"台中市北屯區太原路三段167號",
      "phone":"0958-300-495",
      "latitude": "24.165107",
      "longitude": "120.690516",
      "time": "06:30–13:00"
    },
    {
      "name":"莫尼早餐Morni",
      "address":"台中市西區民權路374號",
      "phone":"04-2207-0186",
      "latitude": "24.152089",
      "longitude": "120.670616",
      "time": "07:00–14:00"
    },
    {
      "name":"早安公雞 篤行店",
      "address":"台中市北區篤行路239-2號",
      "phone":"04-2203-3866",
      "latitude": "24.152149",
      "longitude": "120.673372",
      "time": "06:00–13:30"
    },
    {
      "name":"穅村",
      "address":"台中市北屯區進化北路63巷4號",
      "phone":"04-2235-8918",
      "latitude": "24.162627",
      "longitude": "120.689789",
      "time": "07:30–17:00,星期四公休"
    },
    {
      "name":"Johnson Brunch",
      "address":"台中市北屯區后庄路119號",
      "phone":"04-2426-2656",
      "latitude": "24.190147",
      "longitude": "120.665003",
      "time": "09:00–15:00,星期二公休"
    },
    {
      "name":"隱巷In Shine早午餐",
      "address":"台中市北屯區中清路二段362巷16弄58號",
      "phone":"0988-334-242",
      "latitude": "24.179183",
      "longitude": "120.669281",
      "time": "11:00–14:30,18:00–21:00,星期日公休"
    },
    {
      "name":"米納咖啡早午餐",
      "address":"台中市北屯區大連路一段52號",
      "phone":"04-2295-9655",
      "latitude": "24.175657",
      "longitude": "120.672449",
      "time": "05:00–13:30"
    },
    {
      "name":"小葛廚房",
      "address":"台中市北屯區四平路409號",
      "phone":"04-2422-6289",
      "latitude": "24.190040",
      "longitude": "120.680796",
      "time": "09:00–18:00,星期三公休"
    },
    {
      "name":"創意廚房早午餐x瓜瓜園",
      "address":"台中市北屯區崇德十路一段528號",
      "phone":"04-2421-2429",
      "latitude": "24.188450",
      "longitude": "120.683321",
      "time": "06:00–21:00"
    },
    {
      "name":"卡路里早午餐 北屯豐樂店",
      "address":"台中市北屯區豐樂路10-1號",
      "phone":"04-2422-0113",
      "latitude": "24.193521",
      "longitude": "120.684510",
      "time": "06:30–13:30"
    },
    {
      "name":"旅食早午餐",
      "address":"台中市北屯區熱河路三段16號",
      "phone":"04-2247-8648",
      "latitude": "24.176146",
      "longitude": "120.688285",
      "time": "07:00–16:00,星期四公休"
    },
    {
      "name":"南天朝食所",
      "address":"台中市北屯區崇德六路8號",
      "phone":"04-2242-2881",
      "latitude": "24.180475",
      "longitude": "120.689437",
      "time": "09:00–16:00,星期二公休"
    },
    {
      "name":"Fun Lab食艷室",
      "address":"台中市北屯區昌平路二段四巷54號",
      "phone":"04-2247-1620",
      "latitude": "24.180684",
      "longitude": "120.691016",
      "time": "08:00–15:00,星期三.四公休"
    },
    {
      "name":"找晨 手作輕食料理 北屯店",
      "address":"台中市北屯區文昌東十二街17號",
      "phone":"04-2233-4471",
      "latitude": "24.167441",
      "longitude": "120.694906",
      "time": "08:00–16:00,星㝛三公休"
    },
    {
      "name":"壹柒手作早午餐的日常",
      "address":"台中市北區三民路三段120巷6之1號",
      "phone":"04-2225-7770",
      "latitude": "24.150079",
      "longitude": "120.684659",
      "time": "星期四 09:00–17:00"
    },
    {
      "name":"Muni Brunch",
      "address":"台中市雙十路一段東區8號",
      "phone":"0985-615-915",
      "latitude": "24.144501",
      "longitude": "120.686365",
      "time": "09:00–21:00"
    },
    {
      "name":"沙發馬鈴薯早午餐",
      "address":"台中市東區自由路三段18號",
      "phone":"04-2213-0698",
      "latitude": "24.142966",
      "longitude": "120.686623",
      "time": "09:00–16:00"
    },
    {
      "name":"法布兒",
      "address":"台中市西區自治街136號",
      "phone":"04-2378-2618",
      "latitude": "24.141322",
      "longitude": "120.668245",
      "time": "07:00–13:00,週日公休"
    }
  ],
  "coffee":[
    {
      "name":"啡文學 龍井店",
      "address":"台中市龍井區中埠路",
      "phone":"0988-002-365",
      "latitude": "24.189431",
      "longitude": "120.575547",
      "time": "18:00–03:00"
    },
    {
      "name":"fish cafe 魚咖啡",
      "address":"台中市龍井區新興路27巷8號",
      "phone":"0986-101-616",
      "latitude": "24.180300",
      "longitude": "120.589807",
      "time": "12:30–21:00"
    },
    {
      "name":"金鑛咖啡 東海店",
      "address":"台中市龍井區新興路15巷2號",
      "phone":"04-2633-3300",
      "latitude": "24.180969",
      "longitude": "120.590497",
      "time": "08:00–00:00"
    },
    {
      "name":"鐵木咖啡",
      "address":"台中市龍井區新興路9巷10號",
      "phone":"04-2631-8029",
      "latitude": "24.180835",
      "longitude": "120.591240",
      "time": "13:00–18:00,星期三公休"
    },
    {
      "name":"MR.BROWN 東海店",
      "address":"台中市西屯區台灣大道四段1727號",
      "phone":"04-2359-2848",
      "latitude": "24.180000",
      "longitude": "120.595989",
      "time": "07:00–21:00"
    },
    {
      "name":"丹堤咖啡",
      "address":"台中市西屯區台灣大道四段1727號",
      "phone":"04-2359-2743",
      "latitude": "24.179398",
      "longitude": "120.601722",
      "time": "07:00–21:00"
    },
    {
      "name":"時光咖啡",
      "address":"台中市龍井區藝術街61巷9號",
      "phone":"04-2632-8168",
      "latitude": "24.187393",
      "longitude": "120.593300",
      "time": "12:00–19:00,星期日公休"
    },
    {
      "name":"Caf'e yestoday",
      "address":"台中市龍井區藝術街97號",
      "phone":"04-2652-4615",
      "latitude": "24.188032",
      "longitude": "120.592437",
      "time": "08:00–15:00,星期三.四公休"
    },
    {
      "name":"橘光呼嚕X背包cat",
      "address":"台中市龍井區藝術街85號",
      "phone":"04-2631-2868",
      "latitude": "24.188013",
      "longitude": "120.592489",
      "time": "11:00–20:00,星期三公休"
    },
    {
      "name":"H café",
      "address":"台中市龍井區藝術街39巷12號",
      "phone":"0936-593-239",
      "latitude": "24.187369",
      "longitude": "120.593970",
      "time": "10:00–18:00,星期五公休"
    },
    {
      "name":"咖啡地圖",
      "address":"台中市龍井區藝術南街8號",
      "phone":"04-2652-8282",
      "latitude": "24.187106",
      "longitude": "120.594423",
      "time": "11:00–21:00,星期二公休"
    },
    {
      "name":"黑潮 coffeelization",
      "address":"台中市龍井區新興路22巷7號",
      "phone":"0975-268-557",
      "latitude": "24.181387",
      "longitude": "120.589651",
      "time": "10:00–20:30"
    },
    {
      "name":"思維 輕甜食",
      "address":"台中市龍井區新興路27巷8號",
      "phone":"0928-871-208",
      "latitude": "24.180301",
      "longitude": "120.589775",
      "time": ""
    },
    {
      "name":"伯朗咖啡館 台中中科店",
      "address":"台中市西屯區西屯路三段257號",
      "phone":"04-2461-3952",
      "latitude": "24.189998",
      "longitude": "120.613090",
      "time": "07:30–22:00"
    },
    {
      "name":"手樂咖啡",
      "address":"台中市西屯區福林路80號",
      "phone":"04-2461-5788",
      "latitude": "24.186129",
      "longitude": "120.614591",
      "time": "08:00–22:00"
    },
    {
      "name":"路易莎咖啡 中港店",
      "address":"台中市西屯區福康路26號",
      "phone":"04-2463-8248",
      "latitude": "24.183636",
      "longitude": "120.616934",
      "time": "06:30–18:00"
    },
    {
      "name":"有本生活坊",
      "address":"台中市西屯區逢甲路253巷47號",
      "phone":"04-2700-3618",
      "latitude": "24.175207",
      "longitude": "120.641506",
      "time": "09:00–19:00"
    },
    {
      "name":"黑洞咖啡館",
      "address":"台中市西屯區福上巷323弄16號",
      "phone":"04-2452-8563",
      "latitude": "24.174722",
      "longitude": "120.645451",
      "time": "14:30–00:00,星期二公休"
    },
    {
      "name":"象牙塔咖啡廳",
      "address":"台中市西屯區上石北五巷14號",
      "phone":"04-2452-2328",
      "latitude": "24.173329",
      "longitude": "120.645532",
      "time": "13:30–18:30"
    },
    {
      "name":"好日咖啡",
      "address":"台中市西屯區福上巷216弄15號",
      "phone":"0953-507-178",
      "latitude": "24.176137",
      "longitude": "120.648019",
      "time": "12:00–00:00"
    },
    {
      "name":"Raven coffee",
      "address":"台中市西屯區河南路二段301巷58號",
      "phone":"04-2451-4848",
      "latitude": "24.172124",
      "longitude": "120.648050",
      "time": "09:00–19:00"
    },
    {
      "name":"Louisa Coffee 逢甲福星店",
      "address":"台中市西屯區河南路二段301巷72號",
      "phone":"04-2452-9143",
      "latitude": "24.171956",
      "longitude": "120.648272",
      "time": "07:15–21:00"
    },
    {
      "name":"龍貓咖啡館",
      "address":"台中市西屯區河南路514號",
      "phone":"04-2708-6070",
      "latitude": "24.169134",
      "longitude": "120.641937",
      "time": "12:00–22:00"
    },
    {
      "name":"窩柢咖啡公寓",
      "address":"台中市西屯區杏林路27號",
      "phone":"04-2708-6808",
      "latitude": "24.167832",
      "longitude": "120.642014",
      "time": "12:00–22:00"
    },
    {
      "name":"1770 Cafe",
      "address":"台中市西屯區惠來路150-1號",
      "phone":"04-2312-8678",
      "latitude": "24.169013",
      "longitude": "120.647494",
      "time": "09:00–17:00,星期四公休"
    },
    {
      "name":"奧杜邦手工咖啡館",
      "address":"台中市西屯區西屯路二段207號",
      "phone":"0988-617-626",
      "latitude": "24.169447",
      "longitude": "120.648128",
      "time": "09:00–21:00"
    },
    {
      "name":"Match Café 默契咖啡",
      "address":"台中市西屯區台灣大道二段902號",
      "phone":"04-2313-4597",
      "latitude": "24.161645",
      "longitude": "120.652051",
      "time": "10:00–22:00"
    },
    {
      "name":"黑水工廠咖啡館",
      "address":"台中市西屯區四川路85號",
      "phone":"04-2312-2782",
      "latitude": "24.161442",
      "longitude": "120.654843",
      "time": "13:00–21:00,星期二公休"
    },
    {
      "name":"風尚人文咖啡館",
      "address":"台中市西屯區文心路三段111號",
      "phone":"04-2317-0482",
      "latitude": "24.168591",
      "longitude": "120.654672",
      "time": "10:00–00:30"
    },
    {
      "name":"南平咖啡館",
      "address":"台中市西屯區重慶路349號",
      "phone":"04-2316-7491",
      "latitude": "24.170580",
      "longitude": "120.662513",
      "time": "07:45–18:30,週日公休"
    },
    {
      "name":"HAUSINC CAFE",
      "address":"台中市北區忠太西路39號",
      "phone":"04-2208-5855",
      "latitude": "24.161873",
      "longitude": "120.667854",
      "time": "09:00–18:00"
    },
    {
      "name":"咕嚕貓咖啡旗艦館",
      "address":"台中市西區館前路6號",
      "phone":"04-2323-9595",
      "latitude": "24.155932",
      "longitude": "120.665581",
      "time": "10:00–21:30"
    },
    {
      "name":"Cupgaze Cafe",
      "address":"台中市北區博館一街13號",
      "phone":"04-2328-0793",
      "latitude": "24.154962",
      "longitude": "120.667554",
      "time": "12:00–19:00"
    },
    {
      "name":"The Liffe Cafe 菲爾咖啡",
      "address":"台中市西屯區櫻花路131號",
      "phone":"04-2313-6916",
      "latitude": "24.171401",
      "longitude": "120.650038",
      "time": "09:00–19:00"
    },
    {
      "name":"沃咖啡",
      "address":"台中市西屯區西屯路二段10-8號",
      "phone":"04-2312-5533",
      "latitude": "24.163769",
      "longitude": "120.662239",
      "time": "07:30–20:00"
    },
    {
      "name":"幕比電影主題咖啡",
      "address":"台中市北區健行路928號",
      "phone":"04-2208-6680",
      "latitude": "24.159281",
      "longitude": "120.666845",
      "time": "07:30–15:30"
    },
    {
      "name":"Carat cafe克拉朵",
      "address":"台中市北區育德路209號",
      "phone":"04-2203-8209",
      "latitude": "24.157149",
      "longitude": "120.669616",
      "time": "08:00–18:00,星期二公休"
    },
    {
      "name":"吧林咖啡balin Coffee",
      "address":"台中市北區陝西路78號",
      "phone":"04-2297-4841",
      "latitude": "24.169526",
      "longitude": "120.668389",
      "time": "10:00–21:00,星期三公休"
    },
    {
      "name":"林倍咖啡",
      "address":"台中市北區天津路二段157號",
      "phone":"04-2299-1439",
      "latitude": "24.170033",
      "longitude": "120.678066",
      "time": "10:00–22:00"
    },
    {
      "name":"梨子咖啡館 崇德店",
      "address":"台中市北屯區崇德路三段1號",
      "phone":"04-2249-0399",
      "latitude": "24.181833",
      "longitude": "120.685715",
      "time": "08:00–22:00"
    },
    {
      "name":"箖coffee",
      "address":"台中市北屯區大連路二段241號",
      "phone":"04-2242-0977",
      "latitude": "24.175731",
      "longitude": "120.688932",
      "time": "10:30–18:30"
    },
    {
      "name":"憲賣咖啡 熱河店",
      "address":"台中市北屯區熱河路二段128號",
      "phone":"04-2238-3366",
      "latitude": "24.171189",
      "longitude": "120.687623",
      "time": "08:30–22:30"
    },
    {
      "name":"路易．莎咖啡 台中崇德店",
      "address":"台中市北屯區北平路三段146號",
      "phone":"04-2236-6026",
      "latitude": "24.170901",
      "longitude": "120.683913",
      "time": "08:00–18:00"
    },
    {
      "name":"西元前 咖啡與簡餐",
      "address":"台中市北屯區昌平路一段21-2號",
      "phone":"0925-161-216",
      "latitude": "24.166246",
      "longitude": "120.693958",
      "time": "11:00–17:00"
    },
    {
      "name":"歐客佬",
      "address":"台中市北區崇德路一段517號",
      "phone":"04-2235-0979",
      "latitude": "24.164947",
      "longitude": "120.684849",
      "time": "10:00–22:00"
    },
    {
      "name":"框旅咖啡",
      "address":"台中市北區北興街192巷5號",
      "phone":"0965-155-181",
      "latitude": "24.164255",
      "longitude": "120.685447",
      "time": "11:30–19:30"
    },
    {
      "name":"路易．莎咖啡 台中中國醫店",
      "address":"台中市北區五常街178號",
      "phone":"04-2202-3663",
      "latitude": "24.158917",
      "longitude": "120.680081",
      "time": "07:10–19:00"
    },
    {
      "name":"blackpages CAFE",
      "address":"台中市北區三民路三段161號C棟",
      "phone":"04-2221-1287#28",
      "latitude": "24.152035",
      "longitude": "120.684779",
      "time": "11:00–22:00"
    },
    {
      "name":"茪點咖啡 Briller Café",
      "address":"台中市北區錦新街35-10號",
      "phone":"04-2229-9080",
      "latitude": "24.153019",
      "longitude": "120.686971",
      "time": "10:30–18:00"
    },
    {
      "name":"Cafe Muug 咖啡罵哥",
      "address":"台中市北區三民路三段295號",
      "phone":"04-2238-8789",
      "latitude": "24.156877",
      "longitude": "120.688274",
      "time": "09:00–18:00,星期日公休"
    },
    {
      "name":"蒔嚐 しばしば",
      "address":"台中市北區進德北路128號",
      "phone":"04-2360-2388",
      "latitude": "24.153625",
      "longitude": "120.692832",
      "time": "13:00–19:00,星期二公休"
    },
    {
      "name":"cafe camo 卡默咖啡",
      "address":"台中市北區進化路337巷15弄2號",
      "phone":"04-2360-1031",
      "latitude": "24.153695",
      "longitude": "120.693036",
      "time": "13:00–20:00,週休六.四"
    },
    {
      "name":"82mm Cafe",
      "address":"台中市北區三民路三段66號",
      "phone":"04-2229-8882",
      "latitude": "24.147838",
      "longitude": "120.683404",
      "time": "11:00–21:00"
    },
    {
      "name":"摩德年代",
      "address":"台中市北區大誠街138號",
      "phone":"04-2225-2422",
      "latitude": "24.147567",
      "longitude": "120.681192",
      "time": "13:00–21:00"
    },
    {
      "name":"路易莎咖啡 市政朝富店",
      "address":"台中市西屯區朝富路286號",
      "phone":"04-2254-9978",
      "latitude": "24.162187",
      "longitude": "120.634962",
      "time": "07:30–21:30"
    },
    {
      "name":"雲道咖啡館",
      "address":"台中市西屯區大墩十九街101號",
      "phone":"04-2320-5101",
      "latitude": "24.157282",
      "longitude": "120.653722",
      "time": "09:00–21:00"
    },
    {
      "name":"麥克菲咖啡館",
      "address":"台中市西屯區大容東一街31號",
      "phone":"04-2320-7278",
      "latitude": "24.156148",
      "longitude": "120.648451",
      "time": "10:00–19:00"
    },
    {
      "name":"卡啡那 惠來店",
      "address":"台中市西屯區惠中路二段45號",
      "phone":"04-2259-8025",
      "latitude": "24.155694",
      "longitude": "120.641207",
      "time": "09:00–00:00"
    },
    {
      "name":"路易莎咖啡 台中大墩店",
      "address":"台中市南屯區大墩路806號",
      "phone":"04-2326-2617",
      "latitude": "24.154696",
      "longitude": "120.649861",
      "time": "06:30–18:30"
    },
    {
      "name":"Forro Cafe 呼嚕咖啡",
      "address":"台中市西區精誠三街47號",
      "phone":"04-2310-1661",
      "latitude": "24.155801",
      "longitude": "120.658235",
      "time": "NO TIME"
    },
    {
      "name":"The Factory Mojocoffee",
      "address":"台中市西區精誠六街22號",
      "phone":"04-2328-9448",
      "latitude": "24.154926",
      "longitude": "120.657092",
      "time": "08:30–18:00"
    },
    {
      "name":"沒有名字的咖啡館",
      "address":"台中市西區公益路174巷212號",
      "phone":"NO Phone",
      "latitude": "24.154376",
      "longitude": "120.658563",
      "time": "13:00–20:00,星期三公休"
    },
    {
      "name":"默契咖啡二店",
      "address":"台中市西區精誠十二街7號",
      "phone":"04-2320-3112",
      "latitude": "24.152441",
      "longitude": "120.655754",
      "time": "11:00–19:00,星期四公休"
    },
    {
      "name":"木門咖啡",
      "address":"台中市南屯區大墩十二街126號",
      "phone":"04-2329-8877",
      "latitude": "24.150004",
      "longitude": "120.652010",
      "time": "09:00–21:00"
    },
    {
      "name":"Cafe LuLu任性咖啡館",
      "address":"台中市西區大墩十街70號",
      "phone":"04-2328-9288",
      "latitude": "24.147776",
      "longitude": "120.652524",
      "time": "09:00–18:00,星期三公休"
    },
    {
      "name":"筆堆BIDUI Cafe 勤美店",
      "address":"台中市西區中興街122巷16號",
      "phone":"NO PHONE",
      "latitude": "24.148215",
      "longitude": "120.663935",
      "time": "15:00–00:00"
    },
    {
      "name":"元生咖啡",
      "address":"台中市西區向上路一段79巷64號",
      "phone":"04-2302-2868",
      "latitude": "24.145212",
      "longitude": "120.664193",
      "time": "09:00–18:00"
    },
    {
      "name":"waka caf'e 瓦卡咖啡",
      "address":"台中市南屯區向上南路一段287號",
      "phone":"04-2473-3119",
      "latitude": "24.144874",
      "longitude": "120.648918",
      "time": "09:00–21:00"
    },
    {
      "name":"Retro Mojo Coffee",
      "address":"台中市西區五權西路一段116號",
      "phone":"04-2375-5592",
      "latitude": "24.140263",
      "longitude": "120.660957",
      "time": "08:30–20:00"
    },
    {
      "name":"奉咖啡",
      "address":"台中市西區五權西路一段57巷2弄7號",
      "phone":"0972-872-792",
      "latitude": "24.139680",
      "longitude": "120.663743",
      "time": "13:00–22:00,星期二公休"
    },
    {
      "name":"朵蕾咖啡館",
      "address":"台中市西區民權路213巷1號",
      "phone":"04-2301-6685",
      "latitude": "24.147425",
      "longitude": "120.669392",
      "time": "09:30–18:00,星期三公休"
    },
    {
      "name":"AShare Cafe 旅人故事咖啡館",
      "address":"台中市西區民生北路20號",
      "phone":"04-2301-7380",
      "latitude": "24.145141",
      "longitude": "120.668789",
      "time": "09:00–19:00"
    },
    {
      "name":"歐舍咖啡",
      "address":"台中市西區五權路14號",
      "phone":"04-2221-2828",
      "latitude": "24.143404",
      "longitude": "120.669372",
      "time": "10:30–18:00"
    },
    {
      "name":"里厚來坐咖啡店",
      "address":"台中市西區安龍里忠勤街155號",
      "phone":"04-2372-1935",
      "latitude": "24.140159",
      "longitude": "120.666788",
      "time": "14:00–21:00,星期四公休"
    },
    {
      "name":"畢洛雅咖啡館",
      "address":"台中市西區林森路194號",
      "phone":"04-2375-4987",
      "latitude": "24.139801",
      "longitude": "120.668343",
      "time": "07:00–17:00"
    },
    {
      "name":"Coffee Industry-Café Sora",
      "address":"台中市西區民生路179號",
      "phone":"04-2220-2401",
      "latitude": "24.143458",
      "longitude": "120.670166",
      "time": "09:00–18:00"
    },
    {
      "name":"華泰咖啡店",
      "address":"台中市中區三民路二段18巷32號",
      "phone":"04-2224-0011",
      "latitude": "24.140079",
      "longitude": "120.678227",
      "time": "10:00–15:00,17:00–21:00,星期日公休"
    },
    {
      "name":"Fleet Street",
      "address":"台中市中區民族路24號",
      "phone":"04-2224-0268",
      "latitude": "24.137705",
      "longitude": "120.681917",
      "time": "08:00–19:00"
    },
    {
      "name":"Mi Cafe' 覓咖啡",
      "address":"台中市東區復興路四段149巷5弄8號",
      "phone":"04-2229-5252",
      "latitude": "24.136114",
      "longitude": "120.685612",
      "time": "07:30–17:30"
    },
    {
      "name":"鹿角咖啡Antler Cafe",
      "address":"台中市南區愛國街139號",
      "phone":"04-2229-1899",
      "latitude": "24.131906",
      "longitude": "120.680347",
      "time": "10:00–19:00"
    },
    {
      "name":"斑馬散步咖啡",
      "address":"台中市西區五權一街5號",
      "phone":"04-2378-0515",
      "latitude": "24.139195",
      "longitude": "120.665145",
      "time": "09:00–18:00"
    },   
    {
      "name":"拉拉手 lalaso cafe",
      "address":"台中市南區仁義街48號",
      "phone":"0921-283-626",
      "latitude": "24.125695",
      "longitude": "120.677438",
      "time": "12:00–16:30,星期六.日公休"
    },
    {
      "name":"妃彤巧可咖啡館",
      "address":"台中市西區美村路一段687號2F",
      "phone":"04-2378-1677",
      "latitude": "24.135285",
      "longitude": "120.661794",
      "time": "09:30–16:30,星期二公休"
    },
    {
      "name":"L'espacecaf'e 老陳咖啡",
      "address":"台中市西區五權七街52號",
      "phone":"04-2376-0058",
      "latitude": "24.135267",
      "longitude": "120.663500",
      "time": "08:00–14:00,星期三公休"
    },
    {
      "name":"記憶旅行咖啡館 Route cafe",
      "address":"台中市西區三民西路83號",
      "phone":"0978-455-460",
      "latitude": "24.130781",
      "longitude": "120.665892",
      "time": "08:30–18:00,星期二,五,六公休"
    },
    {
      "name":"貓旅行咖啡輕食館",
      "address":"台中市西區林森路26-6號",
      "phone":"04-2229-0589",
      "latitude": "24.135194",
      "longitude": "120.673619",
      "time": "11:00–21:00,星期三公休"
    },
    {
      "name":"町·走馬",
      "address":"台中市西區大全街52號",
      "phone":"0921-025-725",
      "latitude": "24.135891",
      "longitude": "120.670899",
      "time": "20:00–02:00,星期六,日公休"
    },
    {
      "name":"享初Poppy waffle 嶺東店",
      "address":"台中市南屯區嶺東路876號",
      "phone":"04-2389-0613",
      "latitude": "24.152447",
      "longitude": "120.612697",
      "time": "10:00–21:00,星期四公休"
    },
    {
      "name":"浪浪別哭",
      "address":"台中市南屯區干城街214巷1號",
      "phone":"04-2254-7018",
      "latitude": "24.151905",
      "longitude": "120.629779",
      "time": "11:00–19:30,星期三公休"
    },
    {
      "name":"角石町咖啡店",
      "address":"台中市南屯區干城街145巷15弄2號",
      "phone":"0972-786-200",
      "latitude": "24.152221",
      "longitude": "120.629754",
      "time": "13:00–20:00"
    },
    {
      "name":"Mapper cafe脈博咖啡",
      "address":"台中市南屯區中台路24-12號",
      "phone":"04-2380-7735",
      "latitude": "24.136801",
      "longitude": "120.600834",
      "time": "10:00–17:00,星期二公休"
    },
    {
      "name":"成真咖啡 台中審計店",
      "address":"台中市西區民生路370號",
      "phone":"04-2302-6882",
      "latitude": "24.144462",
      "longitude": "120.662350",
      "time": "10:00–21:00"
    },    
    {
      "name":"KYOYA",
      "address":"台中市西區五權西六街103號",
      "phone":"NO Phone",
      "latitude": "24.137062",
      "longitude": "120.658929",
      "time": "12:00–18:00,星期三公休"
    }
  ],
  "dessert":[
    {
      "name":"小島遇見他",
      "address":"台中市西屯區華夏巷東二弄15號",
      "phone":"04-2451-1581",
      "latitude": "24.180628",
      "longitude": "120.644698",
      "time": "13:00–22:00,週二公休"
    },    
    {
      "name":"27 1/3 cake house",
      "address":"台中市西屯區台灣大道三段656號",
      "phone":"04-2451-5055",
      "latitude": "24.170279",
      "longitude": "120.638189",
      "time": "09:30–21:00"
    },    
    {
      "name":"AGIO Chocolates 愛其歐巧克力",
      "address":"台中市西屯區環河路37號",
      "phone":"04-2254-1456",
      "latitude": "24.166387",
      "longitude": "120.635717",
      "time": "13:00–19:00,週二公休"
    },    
    {
      "name":"Rabbit cake 瑞比庫克",
      "address":"台中市西屯區逢甲路19巷17-11號",
      "phone":"0981-325-352",
      "latitude": "24.178394",
      "longitude": "120.646039",
      "time": "17:00–00:00"
    },    
    {
      "name":"Two Day 日日鬆餅",
      "address":"台中市西屯區文華路永新巷13號",
      "phone":"0923-312-545",
      "latitude": "24.176842",
      "longitude": "120.645386",
      "time": "16:00–21:45"
    },    
    {
      "name":"法雅花園甜點",
      "address":"台中市西屯區長安路一段108號",
      "phone":"04-2317-5895",
      "latitude": "24.170585",
      "longitude": "120.656374",
      "time": "10:00–18:00,星期六.日公休"
    },    
    {
      "name":"派對動物杯子蛋糕專賣店1",
      "address":"台中市西屯區天水西六街23號",
      "phone":"0936-557-755",
      "latitude": "24.166952",
      "longitude": "120.656260",
      "time": "11:00–19:00"
    },    
    {
      "name":"久久津乳酪菓子手造所",
      "address":"台中市西屯區西屯路二段126-7號",
      "phone":"04-2311-8848",
      "latitude": "24.166791",
      "longitude": "120.651821",
      "time": "11:00–21:00"
    },    
    {
      "name":"Siang Hao·Pâtisserie・法式甜點",
      "address":"台中市西屯區太原路一段195號",
      "phone":"04-2313-1224",
      "latitude": "24.162771",
      "longitude": "120.661056",
      "time": "11:00–21:00,星期四公休"
    },    
    {
      "name":"葉食甜點工作室",
      "address":"台中市西區博館路222號",
      "phone":"NO Phone",
      "latitude": "24.158962",
      "longitude": "120.661478",
      "time": "14:00–19:00,星期二公休"
    },    
    {
      "name":"Glocke Bakery 手做甜點工作室",
      "address":"台中市北區忠太西路10號",
      "phone":"04-2208-1985",
      "latitude": "24.159964",
      "longitude": "120.667889",
      "time": "12:00–19:00,星期二公休"
    },    
    {
      "name":"橫濱洋果子",
      "address":"台中市北區育德路195號",
      "phone":"04-2208-2727",
      "latitude": "24.157151",
      "longitude": "120.670113",
      "time": "11:00–20:00,星期日公休"
    },    
    {
      "name":"甜忌廉甜點店",
      "address":"台中市西區華美街480巷16號",
      "phone":"04-2329-6652",
      "latitude": "24.155498",
      "longitude": "120.660873",
      "time": "11:30–20:30,星期三公休"
    },    
    {
      "name":"杏屋乳酪蛋糕",
      "address":"台中市西屯區黎明路二段885號",
      "phone":"04-2252-1684",
      "latitude": "24.168394",
      "longitude": "120.635593",
      "time": "10:00–21:00"
    },    
    {
      "name":"BAKE CHEESE TART",
      "address":"台中市西屯區台灣大道三段301號1樓",
      "phone":"04-2254-9491",
      "latitude": "24.165259",
      "longitude": "120.643707",
      "time": "11:00–21:30"
    },    
    {
      "name":"Cream Tea",
      "address":"台中市西屯區惠中二街26號",
      "phone":"04-2251-2636",
      "latitude": "24.162599",
      "longitude": "120.643384",
      "time": "08:30–18:00,星期六.日公休"
    },    
    {
      "name":"Candy Wedding",
      "address":"台中市西屯區大容西街19號",
      "phone":"04-2328-8242",
      "latitude": "24.155771",
      "longitude": "120.647387",
      "time": "12:00–19:00,週日公休"
    },    
    {
      "name":"夫妻臉甜點 Dessert Hyvä",
      "address":"台中市南屯區惠文路580號",
      "phone":"04-2251-2602",
      "latitude": "24.149112",
      "longitude": "120.643935",
      "time": "13:00–19:00"
    },    
    {
      "name":"小家仨人甜點工作室",
      "address":"台中市南屯區向上南路一段209-1號",
      "phone":"0911-224-498",
      "latitude": "24.144785",
      "longitude": "120.651400",
      "time": "13:00–20:00,星期二,三公休"
    },    
    {
      "name":"偷偷 Toutou Cuisine",
      "address":"台中市西區精誠二街5號",
      "phone":"04-2310-8102",
      "latitude": "24.157334",
      "longitude": "120.657561",
      "time": "13:00–19:00"
    },    
    {
      "name":"Jinjin studio私宅甜點",
      "address":"台中市西區中美街419巷21號",
      "phone":"0907-243-358",
      "latitude": "24.153005",
      "longitude": "120.659348",
      "time": "14:00–21:00"
    },    
    {
      "name":"KAKA Pâtisserie",
      "address":"台中市西區華美西街一段15-1號",
      "phone":"04-2310-8123",
      "latitude": "24.151629",
      "longitude": "120.658239",
      "time": "12:00–19:00,星期三,四公休"
    },    
    {
      "name":"耕者有其甜",
      "address":"台中市西區華美街234號",
      "phone":"0986-750-680",
      "latitude": "24.148280",
      "longitude": "120.658911",
      "time": "13:00–19:00"
    },    
    {
      "name":"咕粒姆",
      "address":"台中市西區中興街142號",
      "phone":"04-2301-5870",
      "latitude": "24.148869",
      "longitude": "120.663077",
      "time": "13:00–21:00,星期二公休"
    },    
    {
      "name":"蜜柑法式甜點麵包",
      "address":"台中市西區模範街31巷16號",
      "phone":"04-2301-2766",
      "latitude": "24.149926",
      "longitude": "120.666009",
      "time": "11:30–20:00,星期一公休"
    },    
    {
      "name":"P&J's Pâtisserie 甜點工作室",
      "address":"台中市西區民權路229巷30號",
      "phone":"04-2301-0711",
      "latitude": "24.149082",
      "longitude": "120.667678",
      "time": "12:00–18:00,星期一公休"
    },    
    {
      "name":"二月 • 森 甜點工作室",
      "address":"台中市西區模範街18巷2號",
      "phone":"04-2305-7022",
      "latitude": "24.148211",
      "longitude": "120.666823",
      "time": "12:00–20:00,星期一至日四公休"
    },    
    {
      "name":"若草甜點店",
      "address":"台中市西區模範街3巷22號",
      "phone":"04-2301-3853",
      "latitude": "24.147604",
      "longitude": "120.665753",
      "time": "12:30–18:30,星期日,一公休"
    },    
    {
      "name":"法米法式甜點 向上店",
      "address":"台中市西區向上路一段79巷16號",
      "phone":"04-2301-1060",
      "latitude": "24.146292",
      "longitude": "120.664189",
      "time": "09:00–19:00,星期二公休"
    },    
    {
      "name":"CJSJ",
      "address":"台中市西區向上路一段79巷72號",
      "phone":"04-2301-6996",
      "latitude": "24.144963",
      "longitude": "120.664260",
      "time": "12:00–18:30,星期一公休"
    },    
    {
      "name":"序曲 審計366",
      "address":"台中市西區民生路366號",
      "phone":"04-2301-6801",
      "latitude": "24.144445",
      "longitude": "120.662607",
      "time": "12:00–19:30"
    },    
    {
      "name":"胖子手作甜點",
      "address":"台中市西區審計新村",
      "phone":"0912-467-762",
      "latitude": "24.144748",
      "longitude": "120.662332",
      "time": "17:00–20:00"
    },    
    {
      "name":"蒔初甜點 林森本店",
      "address":"台中市西區林森路100巷10號",
      "phone":"0905-790-527",
      "latitude": "24.138407",
      "longitude": "120.670496",
      "time": "12:00–19:00,星期二公休"
    },    
    {
      "name":"窩巷-Hidden Lane",
      "address":"台中市西區大全街1號",
      "phone":"04-2377-0008",
      "latitude": "24.137264",
      "longitude": "120.672487",
      "time": "11:00–18:00,星期三.四.五公休"
    },    
    {
      "name":"蒔初甜點 五權店",
      "address":"台中市西區五權西六街69號",
      "phone":"04-2375-3767",
      "latitude": "24.137911",
      "longitude": "120.658927",
      "time": "11:00–19:00"
    },    
    {
      "name":"花鳥川水果千層",
      "address":"台中市西區美村路一段596巷14號",
      "phone":"0905-675-038",
      "latitude": "24.137687",
      "longitude": "120.660840",
      "time": "10:30–20:30"
    },       
    {
      "name":"亞尼克台中旗艦店",
      "address":"台中市西區五權西四街120號",
      "phone":"04-2378-7709",
      "latitude": "24.135553",
      "longitude": "120.662553",
      "time": "10:00–21:30"
    },    
    {
      "name":"旅禾 泡芙之家",
      "address":"台中市西區五權七街122號",
      "phone":"04-2375-6858",
      "latitude": "24.135288",
      "longitude": "120.661039",
      "time": "10:00–21:00"
    },    
    {
      "name":"兔子洞甜點工作室",
      "address":"台中市西區五權西一街127號",
      "phone":"04-2375-0388",
      "latitude": "24.134050",
      "longitude": "120.664278",
      "time": "13:00–20:00,星期一公休"
    },    
    {
      "name":"Urara閣樓上的鹹派",
      "address":"台中市西區五權西五街88巷37號",
      "phone":"0912-892-568",
      "latitude": "24.137147",
      "longitude": "120.659211",
      "time": "13:00–19:00,星期二公休"
    },    
    {
      "name":"Bakki Handmade",
      "address":"台中市西區五權西六街136巷6號",
      "phone":"NO Phone",
      "latitude": "24.136261",
      "longitude": "120.658477",
      "time": "13:00–18:00,星期一.二公休"
    },    
    {
      "name":"周周法式甜點",
      "address":"台中市南區崇倫北街27巷5號",
      "phone":"04-2372-0071",
      "latitude": "24.133266",
      "longitude": "120.656442",
      "time": "NO TIME"
    },    
    {
      "name":"法米法式甜點 文心店",
      "address":"台中市南屯區文心南五路一段10號",
      "phone":"04-2473-1863",
      "latitude": "24.132137",
      "longitude": "120.654061",
      "time": "11:00–21:00,星期二公休"
    },    
    {
      "name":"米之朵甜點房",
      "address":"台中市南區復興路二段190號",
      "phone":"04-2261-2008",
      "latitude": "24.127463",
      "longitude": "120.666635",
      "time": "13:00–18:00,星期日公休"
    },    
    {
      "name":"AB法國人的甜點店 Atelier Baulois",
      "address":"台中市南區南陽街61號",
      "phone":"04-2260-5156",
      "latitude": "24.124960",
      "longitude": "120.661227",
      "time": "13:00–20:30"
    },    
    {
      "name":"波波尼耶法式手作甜點 BONBONHEUR",
      "address":"台中市西區五權西二街164號",
      "phone":"NO Phone",
      "latitude": "24.133519",
      "longitude": "120.663799",
      "time": "NO TIME"
    },    
    {
      "name":"檸檬洋菓子",
      "address":"台中市西區康樂街19巷22號",
      "phone":"04-2220-0236",
      "latitude": "24.134109",
      "longitude": "120.676770",
      "time": "09:00–18:00"
    },    
    {
      "name":"威廉公主 甜點",
      "address":"台中市西區篤行路153-1號",
      "phone":"04-2206-9056",
      "latitude": "24.149390",
      "longitude": "120.674252",
      "time": "12:00–19:00,星期二公休"
    },    
    {
      "name":"SJS 法式·甜點·生活",
      "address":"台中市北區成功路447號",
      "phone":"04-2220-9888",
      "latitude": "24.147333",
      "longitude": "120.675315",
      "time": "13:00–20:00"
    },    
    {
      "name":"卉 Hui café·法式甜點",
      "address":"台中市北區日興街190號",
      "phone":"04-2206-0026",
      "latitude": "24.151316",
      "longitude": "120.675938",
      "time": "10:00–18:00,星期二,三,四公休"
    },    
    {
      "name":"可可庫奇甜點工坊",
      "address":"台中市北區三民路三段201巷7號",
      "phone":"04-2225-6568",
      "latitude": "24.153199",
      "longitude": "120.685049",
      "time": "10:30–20:00,星期一公休"
    },    
    {
      "name":"Domochew Lab",
      "address":"台中市北區興進路178號",
      "phone":"04-2238-5178",
      "latitude": "24.155745",
      "longitude": "120.692872",
      "time": "13:00–18:00,星期二.三公休"
    },    
    {
      "name":"OVERTURE序曲",
      "address":"台中市北屯區太原路三段150巷8弄17號",
      "phone":"04-2233-8299",
      "latitude": "24.164085",
      "longitude": "120.689298",
      "time": "12:00–19:30"
    },    
    {
      "name":"塔．米蘭",
      "address":"台中市北區漢口路四段394號",
      "phone":"04-2235-5460",
      "latitude": "24.166925",
      "longitude": "120.684580",
      "time": "11:00–19:00,星期日公休"
    },    
    {
      "name":"CV甜點沙龍",
      "address":"台中市北屯區瀋陽路三段99號",
      "phone":"04-2241-6232",
      "latitude": "24.173054",
      "longitude": "120.688774",
      "time": "11:00–20:00,星期四公休"
    },    
    {
      "name":"久久津乳酪菓子手造所",
      "address":"台中市北屯區崇德路二段203號",
      "phone":"04-2246-8808",
      "latitude": "24.173668",
      "longitude": "120.685444",
      "time": "12:00–21:00,星期三.四公休"
    },    
    {
      "name":"花火甜點工場",
      "address":"台中市北屯區熱河路二段222號",
      "phone":"04-2247-2576",
      "latitude": "24.174733",
      "longitude": "120.688187",
      "time": "13:00–21:00"
    },    
    {
      "name":"流浪者甜點研究室",
      "address":"台中市北屯區崇德七路160號",
      "phone":"0966-193-052",
      "latitude": "24.180940",
      "longitude": "120.687043",
      "time": "12:00–19:30,星期日公休"
    },    
    {
      "name":"愛想像法式甜點店",
      "address":"台中市北屯區崇德六路一段19號",
      "phone":"04-2245-0142",
      "latitude": "24.179669",
      "longitude": "120.695950",
      "time": "13:00–20:00,星期一公休"
    },
    {
      "name":"Le Bourgeon 樂芽法式甜點",
      "address":"台中市西區五權四街21號",
      "phone":"04-2372-9096",
      "latitude": "24.137195",
      "longitude": "120.664533",
      "time": "11:00–19:00,星期一公休"
    }
  ],
   "lzakaya":[
    {
      "name":"夏木日式炭火串燒",
      "address":"台中市龍井區台灣大道五段3巷30弄23號",
      "phone":"0963-128-044",
      "latitude": "24.182688",
      "longitude": "120.591400",
      "time": "18:30–01:00,星期一.二公休"
    },
    {
      "name":"小酌串燒酒場",
      "address":"台中市龍井區台灣大道五段3巷6弄7號",
      "phone":"0936-305-826",
      "latitude": "24.182644",
      "longitude": "120.592606",
      "time": "20:00–02:00"
    },
    {
      "name":"東來屋平價啤酒串燒",
      "address":"台中市西屯區國際街60-2號",
      "phone":"04-2359-2547",
      "latitude": "24.184566",
      "longitude": "120.593949",
      "time": "18:00–01:00,星期三公休"
    },
    {
      "name":"食八津居酒屋",
      "address":"台中市西屯區玉門路368-2號",
      "phone":"04-2461-7701",
      "latitude": "24.189427",
      "longitude": "120.610722",
      "time": "18:00–01:00"
    },
    {
      "name":"小立野串燒酒場 中科店",
      "address":"台中市西屯區國安一路128號",
      "phone":"0972-966-610",
      "latitude": "24.191517",
      "longitude": "120.612569",
      "time": "17:30–01:00"
    },
    {
      "name":"小酒窩日式燒烤居酒屋 福雅店",
      "address":"台中市西屯區福雅路207號",
      "phone":"04-2463-9639",
      "latitude": "24.188768",
      "longitude": "120.620672",
      "time": "17:00–01:00,星期日公休"
    },
    {
      "name":"老大哥居酒屋",
      "address":"台中市西屯區中工三路96號",
      "phone":"04-2355-1678",
      "latitude": "24.178676",
      "longitude": "120.618706",
      "time": "12:00–14:30,17:00–00:30"
    },
    {
      "name":"黑川布琅",
      "address":"台中市西屯區漢翔路326號",
      "phone":"04-2451-5889",
      "latitude": "24.185372",
      "longitude": "120.639480",
      "time": "17:00–01:00"
    },
    {
      "name":"赤串燒燒烤店",
      "address":"台中市西屯區文華路162巷7號",
      "phone":"04-2452-3045",
      "latitude": "24.183505",
      "longitude": "120.646588",
      "time": "17:00–00:00,星期一公休"
    },
    {
      "name":"小垣串炸居酒屋",
      "address":"台中市西屯區文華路150巷15號",
      "phone":"0916-337-521",
      "latitude": "24.183174",
      "longitude": "120.646728",
      "time": "19:00–01:00,星期一公休"
    },
    {
      "name":"酒餚·旨味",
      "address":"台中市西屯區西屯路二段282-9號",
      "phone":"04-2452-9322",
      "latitude": "24.176398",
      "longitude": "120.643771",
      "time": "17:00–02:00"
    },
    {
      "name":"壹柒 串燒酒場",
      "address":"台中市西屯區青海路221號",
      "phone":"04-2452-0705",
      "latitude": "24.171611",
      "longitude": "120.643554",
      "time": "18:00–00:00,星期一公休"
    },
    {
      "name":"將軍府日式居酒屋",
      "address":"台中市西屯區文心路三段93號",
      "phone":"04-2317-7243",
      "latitude": "24.167156",
      "longitude": "120.652676",
      "time": "17:30–02:00"
    },
    {
      "name":"京丸水產 居酒屋",
      "address":"台中市西屯區文心路三段10號",
      "phone":"04-2312-0808",
      "latitude": "24.166815",
      "longitude": "120.652538",
      "time": "19:00–06:00"
    },
    {
      "name":"御三家 幕末店 (西原家)",
      "address":"台中市西屯區寧夏路98號",
      "phone":"04-2316-8688",
      "latitude": "24.165874",
      "longitude": "120.661909",
      "time": "17:00–23:00"
    },
    {
      "name":"織田信長串燒酒場",
      "address":"台中市北區西屯路一段498號",
      "phone":"04-2208-0558",
      "latitude": "24.162370",
      "longitude": "120.664016",
      "time": "18:00–01:00"
    },
    {
      "name":"黑提灯串燒酒場",
      "address":"台中市北區西屯路一段372號",
      "phone":"04-2208-6178",
      "latitude": "24.159776",
      "longitude": "120.665977",
      "time": "17:30–01:00,星期一公休"
    },
    {
      "name":"和道屋ととや串燒割烹",
      "address":"台中市北區健行路766巷2號",
      "phone":"04-2203-2217",
      "latitude": "24.159520",
      "longitude": "120.669915",
      "time": "17:30–00:30"
    },
    {
      "name":"草津田燒烤居酒屋",
      "address":"台中市北區太原路一段170號",
      "phone":"04-2295-2493",
      "latitude": "24.165266",
      "longitude": "120.671195",
      "time": "17:30–01:00,星期三公休"
    },
    {
      "name":"蝦城居酒屋",
      "address":"台中市北區天津路一段203號",
      "phone":"0980-000-076",
      "latitude": "24.170116",
      "longitude": "120.671247",
      "time": "NO TIME"
    },
    {
      "name":"海人極究海鮮烤物",
      "address":"台中市北區北平路二段38號",
      "phone":"04-2298-8008",
      "latitude": "24.171661",
      "longitude": "120.672880",
      "time": "17:30–01:00,星期一公休"
    },
    {
      "name":"港町十三番地 梅川店",
      "address":"台中市北區梅川西路三段110號",
      "phone":"04-2202-5510",
      "latitude": "24.162615",
      "longitude": "120.676288",
      "time": "17:30–01:30"
    },
    {
      "name":"那一間串燒居酒屋",
      "address":"台中市北屯區綏遠路二段52-1號",
      "phone":"04-2237-2856",
      "latitude": "24.170353",
      "longitude": "120.681463",
      "time": "17:30–00:00,星期一公休"
    },
    {
      "name":"一番YiFan日式居酒屋",
      "address":"台中市北屯區瀋陽路二段175號",
      "phone":"04-2247-2205",
      "latitude": "24.173620",
      "longitude": "120.684780",
      "time": "11:00–14:00,17:00–21:00"
    },
    {
      "name":"吳留手串燒居酒屋 崇德店",
      "address":"台中市北屯區崇德路二段226號",
      "phone":"04-2241-1112",
      "latitude": "24.174382",
      "longitude": "120.685804",
      "time": "18:00–01:00"
    },
    {
      "name":"心居酒屋",
      "address":"台中市北屯區大連路二段101號",
      "phone":"04-2247-1162",
      "latitude": "24.175825",
      "longitude": "120.686145",
      "time": "18:00–01:00"
    },
    {
      "name":"光食料理",
      "address":"台中市西屯區河南路四段111號",
      "phone":"04-2255-6965",
      "latitude": "24.157873",
      "longitude": "120.636518",
      "time": "17:30–02:00,星期二公休"
    },
    {
      "name":"木庵食事處 居酒屋",
      "address":"台中市南屯區大墩十四街360號",
      "phone":"04-2255-6365",
      "latitude": "24.152484",
      "longitude": "120.645223",
      "time": "18:00–01:00,星期日公休"
    },
    {
      "name":"鳥樂 Toriraku",
      "address":"台中市西區精誠路265號",
      "phone":"04-2473-5350",
      "latitude": "24.146452",
      "longitude": "120.655218",
      "time": "18:00–02:00"
    },
    {
      "name":"小立野串燒酒場 忠明店",
      "address":"台中市西區忠明南路152號",
      "phone":"0972-966-610",
      "latitude": "24.150126",
      "longitude": "120.657203",
      "time": "18:30–00:00,星期一公休"
    },
    {
      "name":"酒吞日式串烤居酒屋",
      "address":"台中市西區台中市西區明義街62號",
      "phone":"04-2326-2650",
      "latitude": "24.155261",
      "longitude": "120.660318",
      "time": "18:00–01:00,星期日公休"
    },
    {
      "name":"神楽居酒屋",
      "address":"台中市西區華美西街一段80號",
      "phone":"04-2329-1010",
      "latitude": "24.154671",
      "longitude": "120.659161",
      "time": "17:00–03:00"
    },
    {
      "name":"臧拙居酒屋",
      "address":"台中市西區華美西街一段62號1樓",
      "phone":"04-2328-1818",
      "latitude": "24.154028",
      "longitude": "120.658741",
      "time": "18:00–00:30"
    },
    {
      "name":"自立商店 燒烤居酒屋",
      "address":"台中市西區中美街426號",
      "phone":"04-2310-2038",
      "latitude": "24.153163",
      "longitude": "120.660234",
      "time": "17:30–01:00,星期一公休"
    },
    {
      "name":"章魚小食堂 空",
      "address":"台中市西區忠誠街106號",
      "phone":"04-2328-5158",
      "latitude": "24.152611",
      "longitude": "120.659391",
      "time": "18:00–01:00,星期二公休"
    },
    {
      "name":"森下居食屋",
      "address":"台中市西區公益路204號",
      "phone":"04-2320-1683",
      "latitude": "24.150957",
      "longitude": "120.656160",
      "time": "18:00–00:30,星期二公休"
    },
    {
      "name":"川前屋",
      "address":"台中市西區台中市西區中美街331巷10號",
      "phone":"04-2301-3743",
      "latitude": "24.150261",
      "longitude": "120.659176",
      "time": "17:30–00:00"
    },
    {
      "name":" 烤場居酒屋",
      "address":"台中市西區公正路154-1號",
      "phone":"0935-899-941",
      "latitude": "24.149108",
      "longitude": "120.660926",
      "time": "17:30–02:00,週二公休"
    },
    {
      "name":"鳥重地雞燒",
      "address":"台中市西區公正路132號",
      "phone":"04-2302-2829",
      "latitude": "24.149086",
      "longitude": "120.661470",
      "time": "18:00–02:00,星期三公休"
    },
    {
      "name":"吳留手串燒居酒屋 台中店",
      "address":"台中市西區中興街111號",
      "phone":"04-2302-8611",
      "latitude": "24.148499",
      "longitude": "120.662993",
      "time": "18:00–01:00"
    },
    {
      "name":"靜居酒屋",
      "address":"台中市西區民生路553號",
      "phone":"04-2376-5118",
      "latitude": "24.144294",
      "longitude": "120.657926",
      "time": "17:30–00:00,星期四公休"
    },
    {
      "name":"阿TAKA小料理屋",
      "address":"台中市西區忠勤街186號",
      "phone":"04-2372-2895",
      "latitude": "24.139809",
      "longitude": "120.666824",
      "time": "18:00–23:30,星期一公休"
    },
    {
      "name":"港町十三番地 中正店",
      "address":"台中市中區台灣大道一段405號",
      "phone":"04-2229-0617",
      "latitude": "24.143024",
      "longitude": "120.678719",
      "time": "17:30–01:30"
    },
    {
      "name":"焣喰",
      "address":"台中市北區湖北街93號",
      "phone":"0923-509-712",
      "latitude": "24.150351",
      "longitude": "120.679174",
      "time": "18:00–00:00,星期日公休"
    },
    {
      "name":"養瀧酒藏居酒屋",
      "address":"台中市南屯區文昌街355號",
      "phone":"04-2382-8558",
      "latitude": "24.139333",
      "longitude": "120.632673",
      "time": "11:30–14:30,17:30–22:00"
    },
    {
      "name":"我流精緻烤物",
      "address":"台中市南屯區永春東路898-3號",
      "phone":"04-2380-3166",
      "latitude": "24.135322",
      "longitude": "120.638427",
      "time": "17:30–02:00,星期四公休"
    }
  ],
  "japaneseFood":[
    {
      "name":"山櫻日式料理",
      "address":"台中市龍井區遊園南路145號",
      "phone":"04-2633-6147",
      "latitude": "24.182832",
      "longitude": "120.584574",
      "time": "00:00–14:00,17:00–21:00"
    },
    {
      "name":"三野日式料理",
      "address":"台中市龍井區新興路54號",
      "phone":"04-2633-4958",
      "latitude": "24.181575",
      "longitude": "120.586702",
      "time": "11:30–14:00,17:00–20:30"
    },
    {
      "name":"咕噜咕噜日式料理餐廳",
      "address":"台中市龍井區新興路16巷4號",
      "phone":"04-2652-3787",
      "latitude": "24.181095",
      "longitude": "120.590256",
      "time": "11:30–22:00,星期二公休"
    },
    {
      "name":"末子日式料理",
      "address":"台中市龍井區台灣大道五段3巷62弄27號",
      "phone":"04-2631-4668",
      "latitude": "24.182259",
      "longitude": "120.590956",
      "time": "17:00–23:00,星期四公休"
    },
    {
      "name":"岱櫻居食屋",
      "address":"台中市龍井區向上路六段5號",
      "phone":"04-2633-8833",
      "latitude": "24.175785",
      "longitude": "120.581251",
      "time": "11:00–14:30,17:00–21:30"
    },
    {
      "name":"神川日式料理",
      "address":"台中市西屯區西屯路三段166-90號",
      "phone":"04-2463-2598",
      "latitude": "24.191084",
      "longitude": "120.610905",
      "time": "11:00–14:30,17:00–21:30"
    },
    {
      "name":"和原日式家庭料理 中科店",
      "address":"台中市西屯區西屯路三段265號",
      "phone":"04-2462-8357",
      "latitude": "24.189998",
      "longitude": "120.612742",
      "time": "11:30–14:30,17:30–22:00"
    },
    {
      "name":"家竹亭",
      "address":"台中市西屯區西屯路三段166-59號",
      "phone":"04-2461-9079",
      "latitude": "24.190116",
      "longitude": "120.613339",
      "time": "11:30–14:00,17:30–21:00"
    },
    {
      "name":"佐竹日本料理",
      "address":"台中市西屯區西屯路三段166-49號",
      "phone":"04-2462-8682",
      "latitude": "24.189876",
      "longitude": "120.613772",
      "time": "11:00–14:30,17:00–21:30"
    },
    {
      "name":"福園日本料理",
      "address":"台中市西屯區福科路617號",
      "phone":"04-2463-6215",
      "latitude": "24.186696",
      "longitude": "120.612840",
      "time": "11:00–21:00"
    },
    {
      "name":"貓吃魚日式料理食堂",
      "address":"台中市西屯區福林路75號",
      "phone":"04-2462-5251",
      "latitude": "24.186062",
      "longitude": "120.614204",
      "time": "11:30–14:00,17:30–22:00,星期一公休"
    },
    {
      "name":"豪軒",
      "address":"台中市西屯區福科路500號",
      "phone":"0980-108-961",
      "latitude": "24.186391",
      "longitude": "120.615913",
      "time": "NO TIME"
    },
    {
      "name":"上福綱日式料理",
      "address":"台中市西屯區西屯路三段159之11巷1號",
      "phone":"04-2462-3825",
      "latitude": "24.187265",
      "longitude": "120.619380",
      "time": "11:00–14:00,17:00–21:00,星期一公休"
    },
    {
      "name":"築也日本料理",
      "address":"台中市西屯區西屯路三段150號之53號",
      "phone":"04-2463-6557",
      "latitude": "24.187038",
      "longitude": "120.620641",
      "time": "16:30–23:30"
    },
    {
      "name":"藝奇新日本料理",
      "address":"台中市西屯區福雅路95號",
      "phone":"04-2461-6022",
      "latitude": "24.185118",
      "longitude": "120.619045",
      "time": "11:30–14:30,17:30–22:00"
    },
    {
      "name":"十日町",
      "address":"台中市西屯區福科路362巷30號",
      "phone":"04-2461-8111",
      "latitude": "24.184400",
      "longitude": "120.620411",
      "time": "11:30–14:00,17:00–21:00"
    },
    {
      "name":"藏崎日式料理",
      "address":"台中市西屯區黎明路二段978號",
      "phone":"04-2251-4538",
      "latitude": "24.168025",
      "longitude": "120.635819",
      "time": "NO TIME"
    },
    {
      "name":"上野日式料理",
      "address":"台中市西屯區朝富路252號2樓",
      "phone":"04-2252-2977",
      "latitude": "24.163437",
      "longitude": "120.635337",
      "time": "11:00–14:30,17:00–21:30"
    },
    {
      "name":"真澄懷石割烹日本料理",
      "address":"台中市西屯區朝富路158號",
      "phone":"04-2258-9268",
      "latitude": "24.164720",
      "longitude": "120.636236",
      "time": "11:30–14:00,17:30–21:30"
    },
    {
      "name":"水舞稻葉日本料理",
      "address":"台中市西屯區惠中路二段38號",
      "phone":"04-2255-9199",
      "latitude": "24.156711",
      "longitude": "120.641083",
      "time": "11:30–14:00,17:30–22:00"
    },
    {
      "name":"明園日本料理",
      "address":"台中市西屯區文中路25號",
      "phone":"04-2311-8638",
      "latitude": "24.164157",
      "longitude": "120.649486",
      "time": "11:30–14:30,17:00–21:30"
    },
    {
      "name":"和原日式家庭料理文心店",
      "address":"台中市西屯區文心路三段8號",
      "phone":"04-2313-5888",
      "latitude": "24.164146",
      "longitude": "120.650838",
      "time": "11:30–15:00,17:30–22:00"
    },
    {
      "name":"櫻之舞日本料理",
      "address":"台中市南屯區大墩十七街93號",
      "phone":"04-2329-9393",
      "latitude": "24.155559",
      "longitude": "120.649029",
      "time": "11:30–14:00,17:30–21:00"
    },
    {
      "name":"本魚日本料理",
      "address":"台中市南屯區大聖街248-1號",
      "phone":"04-2310-1178",
      "latitude": "24.153054",
      "longitude": "120.650687",
      "time": "11:30–14:00,17:30–21:00"
    },
    {
      "name":"江戶川日式料理",
      "address":"台中市南屯區大業路85號",
      "phone":"04-2327-4327",
      "latitude": "24.153457",
      "longitude": "120.652706",
      "time": "11:30–14:00,17:30–22:45"
    },
    {
      "name":"桀壽司日本料理",
      "address":"台中市南屯區公益路二段637號",
      "phone":"0987-234-310",
      "latitude": "24.150781",
      "longitude": "120.632942",
      "time": "12:00–14:00,17:00–22:00"
    },
    {
      "name":"高町壽司",
      "address":"台中市南屯區文心一路412號",
      "phone":"04-2252-1209",
      "latitude": "24.154333",
      "longitude": "120.635086",
      "time": "11:00–14:00,17:00–21:00"
    },
    {
      "name":"金鮨 日本料理",
      "address":"台中市南屯區公益路二段239號",
      "phone":"04-2251-1372",
      "latitude": "24.150802",
      "longitude": "120.644429",
      "time": "11:30–14:30,17:30–22:00"
    },
    {
      "name":"旬魚日本料理",
      "address":"台中市南屯區大英街414號",
      "phone":"04-2320-2536",
      "latitude": "24.151374",
      "longitude": "120.648734",
      "time": "11:30–14:00,17:30–21:30"
    },
    {
      "name":"藝奇 大墩店",
      "address":"台中市南屯區大墩路514號",
      "phone":"04-2320-0030",
      "latitude": "24.148996",
      "longitude": "120.649928",
      "time": "11:30–14:30,17:30–22:00"
    },
    {
      "name":"若竹日本料理",
      "address":"台中市南屯區大昌街431號",
      "phone":"04-2320-5033",
      "latitude": "24.149587",
      "longitude": "120.652160",
      "time": "12:00–14:30,18:00–21:30"
    },
    {
      "name":"日月湖日本料理",
      "address":"台中市西區東興路三段154號",
      "phone":"04-2329-6116",
      "latitude": "24.149855",
      "longitude": "120.653164",
      "time": "10:00–14:00,17:00–22:00"
    },
    {
      "name":"將將燒日式料理",
      "address":"台中市西區美村路一段236號",
      "phone":"04-2305-0695",
      "latitude": "24.148397",
      "longitude": "120.661515",
      "time": "11:30–14:30,17:30–21:00"
    },
    {
      "name":"石井屋日本料理店 台中文心店",
      "address":"台中市西屯區文心路三段127號",
      "phone":"04-2317-8808",
      "latitude": "24.169287",
      "longitude": "120.655573",
      "time": "11:00–14:00,17:00–21:00"
    },
    {
      "name":"松戶日本料理",
      "address":"台中市西屯區文心路三段135號",
      "phone":"04-2315-3737",
      "latitude": "24.169708",
      "longitude": "120.655665",
      "time": "11:00–14:00,17:00–21:00"
    },
    {
      "name":"龍二日本料理食堂",
      "address":"台中市西屯區二段華美西街309號",
      "phone":"04-2316-7256",
      "latitude": "24.170267",
      "longitude": "120.666273",
      "time": "11:00–14:00,17:00–21:30"
    },
    {
      "name":"八萫日本料理",
      "address":"台中市西屯區漢口路二段140號",
      "phone":"04-2312-3910",
      "latitude": "24.165683",
      "longitude": "120.662955",
      "time": "11:30–14:00,17:00–21:00"
    },
    {
      "name":"丸野鮨 日式料理",
      "address":"台中市北區西屯路一段329號",
      "phone":"0933-345-655",
      "latitude": "24.159867",
      "longitude": "120.665681",
      "time": "11:30–14:00,17:00–21:00"
    },
    {
      "name":"醍醐日本料理(原夫尚)",
      "address":"台中市北區健行路694之3號",
      "phone":"04-2206-5295",
      "latitude": "24.159291",
      "longitude": "120.671424",
      "time": "10:00–14:00,17:30–22:00"
    },
    {
      "name":"日本食堂【明男の厨房】",
      "address":"台中市北區梅亭街252號",
      "phone":"04-2233-9201",
      "latitude": "24.160434",
      "longitude": "120.681597",
      "time": "11:30–14:30,17:30–21:30"
    },
    {
      "name":"卷卷庵 日式料理",
      "address":"台中市西區中興街82號",
      "phone":"04-2302-6992",
      "latitude": "24.147065",
      "longitude": "120.663241",
      "time": "11:30–14:00,17:30–22:00"
    },
    {
      "name":"魚先生和風美食餐廳",
      "address":"台中市西區台中市西區中興街59號",
      "phone":"04-2301-1417",
      "latitude": "24.146366",
      "longitude": "120.663056",
      "time": "17:30–00:00,週日公休"
    },
    {
      "name":"築地",
      "address":"台中市西區大和路61號",
      "phone":"04-2301-2463",
      "latitude": "24.149963",
      "longitude": "120.667645",
      "time": "11:30–14:00,17:00–20:30"
    },
    {
      "name":"園Sono日本料理餐廳",
      "address":"台中市西區民權路229巷19號",
      "phone":"04-2302-9393",
      "latitude": "24.148972",
      "longitude": "120.668070",
      "time": "11:30–14:00,17:30–21:30"
    },
    {
      "name":"磯浜日本料理",
      "address":"台中市西區民權路233巷11號",
      "phone":"04-2302-5666",
      "latitude": "24.149452",
      "longitude": "120.668569",
      "time": "NO TIME"
    },
    {
      "name":"春山日本料理",
      "address":"台中市西區民權路223之1號",
      "phone":"04-2305-8677",
      "latitude": "24.148325",
      "longitude": "120.669624",
      "time": "10:00–15:00,17:30–22:00"
    },
    {
      "name":"桃太郎四季日本料理",
      "address":"台中市西區民權路233巷12號",
      "phone":"04-2301-3580",
      "latitude": "24.149633",
      "longitude": "120.668739",
      "time": "11:30–14:00,17:30–21:00"
    },
    {
      "name":"吉祥屋日式料理",
      "address":"台中市西區台灣大道二段165號",
      "phone":"04-2328-2877",
      "latitude": "24.151365",
      "longitude": "120.668897",
      "time": "11:30–14:00,17:30–21:00"
    },
    {
      "name":"五十年太郎日式料理屋",
      "address":"台中市中區中華路一段213號",
      "phone":"04-2223-6855",
      "latitude": "24.146378",
      "longitude": "120.677897",
      "time": "17:45–03:45,星期二公休"
    },
    {
      "name":"一樂日式料理",
      "address":"台中市北區三民路三段164號",
      "phone":"0931-550-730",
      "latitude": "24.151967",
      "longitude": "120.685078",
      "time": "17:00–22:30,星期三公休"
    },
    {
      "name":"小春日和日式料理",
      "address":"台中市北區自強街42號",
      "phone":"04-2360-7086",
      "latitude": "24.153304",
      "longitude": "120.697214",
      "time": "11:30–14:00,16:30–21:30,星期一,星期二公休"
    },
    {
      "name":"永青日本料理",
      "address":"台中市北區北屯路51號",
      "phone":"04-2237-7163",
      "latitude": "24.160748",
      "longitude": "120.691834",
      "time": "11:30–14:00,17:00–21:00,星期一公休"
    },
    {
      "name":"松澤日本料理 漢口路店",
      "address":"台中市北屯區漢口路五段136號",
      "phone":"04-2235-7372",
      "latitude": "24.166850",
      "longitude": "120.689660",
      "time": "11:00–14:00,17:00–21:30"
    },
    {
      "name":"竹野日本料理",
      "address":"台中市北屯區昌平路一段258號",
      "phone":"04-2238-9759",
      "latitude": "24.171430",
      "longitude": "120.690944",
      "time": "NO TIME"
    },
    {
      "name":"「花山椒」和風料理 北平店",
      "address":"台中市北屯區北平路三段180號",
      "phone":"04-2236-6817",
      "latitude": "24.170879",
      "longitude": "120.684918",
      "time": "11:30–14:00,17:00–22:45,星期一公休"
    },
    {
      "name":"三次魚屋第一支店",
      "address":"台中市北屯區北平路三段168號",
      "phone":"04-2236-5878",
      "latitude": "24.170810",
      "longitude": "120.684499",
      "time": "11:00–14:00,17:00–21:00"
    },
    {
      "name":"喜樂日式料理",
      "address":"台中市北區北平路二段159號",
      "phone":"04-2298-6080",
      "latitude": "24.171363",
      "longitude": "120.678240",
      "time": "11:00–14:30,17:00–21:00"
    },
    {
      "name":"大和屋日本國際美食館 文心店",
      "address":"台中市北屯區文心路四段285號",
      "phone":"04-2246-5468",
      "latitude": "24.173078",
      "longitude": "120.679871",
      "time": "11:00–14:00,17:00–21:00"
    },
    {
      "name":"子圓町日式手作料理",
      "address":"台中市北屯區瀋陽路一段125號",
      "phone":"04-2291-1363",
      "latitude": "24.174197",
      "longitude": "120.679325",
      "time": "NO TIME"
    },
    {
      "name":"廣小路燒烤日式料理",
      "address":"台中市北屯區台中市北屯區興安路二段144號",
      "phone":"04-2246-2228",
      "latitude": "24.177813",
      "longitude": "120.695061",
      "time": "00:00–13:00,16:30–00:00"
    },
    {
      "name":"鵝房宮 遼寧店",
      "address":"台中市北屯區遼寧路一段376號",
      "phone":"0933-446-507",
      "latitude": "24.176821",
      "longitude": "120.697321",
      "time": "12:00–20:00"
    },
    {
      "name":"大和屋日本料理 五權店",
      "address":"台中市西區五權西三街57號",
      "phone":"04-2372-6838",
      "latitude": "24.137950",
      "longitude": "120.663216",
      "time": "11:00–21:00"
    },
    {
      "name":"林園日本料理",
      "address":"台中市西區五權五街59號",
      "phone":"04-2378-1288",
      "latitude": "24.136455",
      "longitude": "120.662012",
      "time": "11:00–14:00,17:00–21:00"
    },
    {
      "name":"群馬創作和洋日本料理",
      "address":"台中市西區美村路一段802號",
      "phone":"04-2372-3348",
      "latitude": "24.132724",
      "longitude": "120.661505",
      "time": "11:30–14:00,17:30–21:00"
    },
    {
      "name":"武藏亭日本料理",
      "address":"台中市南屯區南屯路二段23號",
      "phone":"04-2471-8410",
      "latitude": "24.135450",
      "longitude": "120.653637",
      "time": "11:30–14:00,17:30–21:00"
    },
    {
      "name":"福野日式料理",
      "address":"台中市南屯區永春路17-8號",
      "phone":"04-2380-5800",
      "latitude": "24.140394",
      "longitude": "120.625587",
      "time": "10:00–14:00,17:00–22:00"
    }
  ],
   "hongkongFood": [
    {
      "name":"靚品香港茶餐廳",
      "address":"台中市龍井區新興路7巷6之1號",
      "phone":"04-2652-6752",
      "latitude": "24.180676",
      "longitude": "120.591476",
      "time": "11:00–22:00"
    },    
    {
      "name":"名粵軒港式飲茶餐廳",
      "address":"台中市西屯區國安一路168號",
      "phone":"04-2462-1333",
      "latitude": "24.191995",
      "longitude": "120.611668",
      "time": "11:30–15:00,17:30–22:00"
    },    
    {
      "name":"唐人街茶餐廳",
      "address":"台中市西屯區西屯路三段253號",
      "phone":"04-2462-5688",
      "latitude": "24.189989",
      "longitude": "120.613171",
      "time": "11:00–21:00"
    },    
    {
      "name":"紅點港飲食販店",
      "address":"台中市西屯區福康路106號",
      "phone":"04-2465-8988",
      "latitude": "24.187068",
      "longitude": "120.618486",
      "time": "11:00–14:00,17:00–21:00"
    },    
    {
      "name":"海華樓",
      "address":"台中市西屯區安和路129號16樓",
      "phone":"04-2463-1616#21601",
      "latitude": "24.180063",
      "longitude": "120.624811",
      "time": "11:30–14:00,17:30–21:00"
    },    
    {
      "name":"銅鑼灣文記港式餐廳",
      "address":"台中市西屯區河南路二段510號",
      "phone":"04-2452-1599",
      "latitude": "24.169257",
      "longitude": "120.642038",
      "time": "11:00–15:00,17:00–21:30"
    },    
    {
      "name":"二十一点港式餐飲",
      "address":"台中市西屯區青海路一段194號",
      "phone":"04-2314-5272",
      "latitude": "24.165870",
      "longitude": "120.652428",
      "time": "11:00–01:00,星期一公休"
    },    
    {
      "name":"寶達港式餐廳",
      "address":"台中市西屯區台灣大道二段919號",
      "phone":"04-2320-2658",
      "latitude": "24.161877",
      "longitude": "120.650107",
      "time": "11:00–21:30"
    },    
    {
      "name":"香港金寶茶餐廳 館前店",
      "address":"台中市北區館前路23號",
      "phone":"04-2326-8511",
      "latitude": "24.155337",
      "longitude": "120.665631",
      "time": "11:00–21:00"
    },    
    {
      "name":"春一籠港式茶樓",
      "address":"台中市南屯區文心路一段521號",
      "phone":"04-2259-5888",
      "latitude": "24.154108",
      "longitude": "120.646282",
      "time": "11:00–21:00"
    },    
    {
      "name":"品心港式飲茶 公益店",
      "address":"台中市南屯區公益路二段138號",
      "phone":"04-2328-6661",
      "latitude": "24.150975",
      "longitude": "120.648157",
      "time": "11:00–15:30,17:00–22:00"
    },    
    {
      "name":"香港小廚",
      "address":"台中市西區台灣大道二段235號",
      "phone":"04-2323-8217",
      "latitude": "24.152764",
      "longitude": "120.666891",
      "time": "11:00–14:30,17:00–21:00"
    },    
    {
      "name":"金苑茶餐廳",
      "address":"台中市西區公益路147號",
      "phone":"04-2302-5345",
      "latitude": "24.150814",
      "longitude": "120.664516",
      "time": "11:30–15:00,17:00–22:00"
    },    
    {
      "name":"寶達茶餐廳養生素食館",
      "address":"台中市西區東興路三段107號",
      "phone":"04-2320-4188",
      "latitude": "24.148336",
      "longitude": "120.652929",
      "time": "11:00–14:30,17:00–21:30"
    },    
    {
      "name":"非常棧港式海鮮餐廳",
      "address":"台中市南屯區東興路二段150號",
      "phone":"04-2473-2799",
      "latitude": "24.140923",
      "longitude": "120.653112",
      "time": "11:00–22:00"
    },    
    {
      "name":"廢青。港式糖水",
      "address":"台中市北區育才街3巷2號",
      "phone":"NO Phone",
      "latitude": "24.148895",
      "longitude": "120.686508",
      "time": "18:00–00:00"
    },    
    {
      "name":"京悅港式飲茶",
      "address":"北區三民路三段179號A棟",
      "phone":"04-2223-3919",
      "latitude": "24.152689",
      "longitude": "120.685119",
      "time": "10:30–21:30"
    },    
    {
      "name":"香港仔茶餐廳 五權店",
      "address":"台中市北區五權路409號",
      "phone":"04-2203-8788",
      "latitude": "24.153352",
      "longitude": "120.682151",
      "time": "11:00–14:30,17:00–21:00"
    },    
    {
      "name":"鑫旺角港式飲茶餐廳",
      "address":"台中市北屯區北平路三段181號",
      "phone":"04-2233-8511",
      "latitude": "24.171031",
      "longitude": "120.684844",
      "time": "11:00–14:00,17:00–21:00,星期三公休"
    },    
    {
      "name":"添好運 台中大遠百店",
      "address":"台中市西屯區台灣大道三段251號",
      "phone":"04-2258-6778",
      "latitude": "24.164334",
      "longitude": "120.644341",
      "time": "10:30–22:00"
    },    
    {
      "name":"檀島香港茶餐廳",
      "address":"台中市西屯區台灣大道三段301號",
      "phone":"04-3609-9033",
      "latitude": "24.165156",
      "longitude": "120.643702",
      "time": "10:30–21:30"
    },    
    {
      "name":"江山海茶餐廳 青海店",
      "address":"台中市西屯區青海路一段56號",
      "phone":"04-2314-6210",
      "latitude": "24.163849",
      "longitude": "120.656310",
      "time": "17:00–05:00"
    },    
    {
      "name":"香港阿杜國際餐飲集團",
      "address":"台中市南屯區文心路一段538-1號",
      "phone":"04-2328-9176",
      "latitude": "24.153762",
      "longitude": "120.646978",
      "time": "11:30–14:30,17:00–21:30"
    },    
    {
      "name":"香港金寶茶餐廳 大業店",
      "address":"台中市南屯區大業路201號",
      "phone":"04-2328-3606",
      "latitude": "24.153529",
      "longitude": "120.650254",
      "time": "11:00–21:00"
    },    
    {
      "name":"菠蘿油王子MINI茶餐廳",
      "address":"台中市南屯區公益路二段160號",
      "phone":"04-2326-4578",
      "latitude": "24.150966",
      "longitude": "120.647833",
      "time": "09:00–17:00"
    },    
    {
      "name":"禾禾田港式茶餐廳",
      "address":"台中市南屯區公益路二段653號",
      "phone":"04-2380-0777",
      "latitude": "24.150769",
      "longitude": "120.632483",
      "time": "11:00–14:00,17:30–21:00"
    },  
    {
      "name":"水舞饌 崇德店",
      "address":"台中市北屯區崇德路二段50號",
      "phone":"04-2236-8989",
      "latitude": "24.170214",
      "longitude": "120.685536",
      "time": "10:00–00:30"
    },    
    {
      "name":"品嘉茶餐廳 北屯店",
      "address":"台中市北屯區熱河路二段220號",
      "phone":"04-2246-6568",
      "latitude": "24.174708",
      "longitude": "120.688208",
      "time": "11:00–14:00,17:00–21:00"
    },    
    {
      "name":"帝蒞軒茶餐廳",
      "address":"台中市南屯區向上路二段431號",
      "phone":"04-2381-2551",
      "latitude": "24.146945",
      "longitude": "120.637502",
      "time": "11:00–14:00,17:00–20:30,星期一公休"
    }  
  ],
  "frenchFood": [
    {
      "name":"鹽之華法國餐廳",
      "address":"台中市西屯區市政路581-1號",
      "phone":"04-2372-6526",
      "latitude": "24.160311",
      "longitude": "120.634956",
      "time": "12:00–15:00,18:00–22:00,星期一公休"
    },
    {
      "name":"席樂法式料理",
      "address":"台中市西屯區市政路569號",
      "phone":"04-2255-5587",
      "latitude": "24.160512",
      "longitude": "120.635407",
      "time": "11:30–14:30,17:30–22:00,星期一公休"
    },
    {
      "name":"Beluga Restaurant & Bar",
      "address":"台中市西屯區上安北街36號",
      "phone":"04-2451-0668",
      "latitude": "24.174276",
      "longitude": "120.636889",
      "time": "12:00–15:00,18:00–22:00,星期一公休"
    },
    {
      "name":"屋倪Uni義法料理坊",
      "address":"台中市南屯區益豐路四段513號",
      "phone":"04-2382-8667",
      "latitude": "24.149872",
      "longitude": "120.628563",
      "time": "11:30–14:30,17:30–21:30"
    },
    {
      "name":"LAFETE法月當代法式料理",
      "address":"台中市南屯區惠文路587號",
      "phone":"04-2252-1680",
      "latitude": "24.149308",
      "longitude": "120.643621",
      "time": "08:00–14:30,17:30–21:30"
    },
    {
      "name":"得梨思法式料理",
      "address":"台中市南屯區大墩七街151號",
      "phone":"04-2471-0033",
      "latitude": "24.143734",
      "longitude": "120.650825",
      "time": "11:30–22:00,星期二公休"
    },
    {
      "name":"Love Wine法式餐酒館",
      "address":"台中市南屯區向上南路一段163之4號",
      "phone":"04-2471-8383",
      "latitude": "24.144899",
      "longitude": "120.654551",
      "time": "17:00–23:00,星期一公休"
    },
    {
      "name":"森米Sam&Amy歐陸創意料理",
      "address":"台中市西區英才路615號",
      "phone":"04-2372-3505",
      "latitude": "24.142167",
      "longitude": "120.665752",
      "time": "11:00–15:00,17:30–21:00,星期一公休"
    },
    {
      "name":"Ceres Restaurant",
      "address":"台中市西區中興街122巷19號",
      "phone":"04-2301-3699",
      "latitude": "24.148510",
      "longitude": "120.664216",
      "time": "18:00–22:00,星期二公休"
    },
    {
      "name":"LE PASSAGE法國料理",
      "address":"台中市西區模範街23巷12-3號",
      "phone":"04-2301-0951",
      "latitude": "24.149237",
      "longitude": "120.665754",
      "time": "17:30–22:00,星期二.三公休"
    },
    {
      "name":"Le Gourmet時尚法國料理",
      "address":"台中市西區大和路85號",
      "phone":"04-2301-3197",
      "latitude": "24.150309",
      "longitude": "120.667445",
      "time": "NO TIME"
    },
    {
      "name":"老吳的西洋料理",
      "address":"台中市西區忠誠街26號",
      "phone":"04-2329-1239",
      "latitude": "24.152620",
      "longitude": "120.662406",
      "time": "11:30–14:30,17:30–21:00,星期一公休"
    },
    {
      "name":"Le Bistro Blanc 餐酒館",
      "address":"台中市西區中美街449號",
      "phone":"04-2320-0828",
      "latitude": "24.154511",
      "longitude": "120.660557",
      "time": "11:30–14:30,17:30–21:30,星期二公休"
    },
    {
      "name":"茉芮料理廚房",
      "address":"台中市西區精誠九街29號",
      "phone":"04-2319-1440",
      "latitude": "24.153745",
      "longitude": "120.656915",
      "time": "10:00–21:30,星期一公休"
    },
    {
      "name":"Gulu's House 法式風味廚坊",
      "address":"台中市西屯區精明路48號",
      "phone":"04-2327-1393",
      "latitude": "24.157691",
      "longitude": "120.656342",
      "time": "18:00–21:30,星期三公休"
    },
    {
      "name":"L'ARÔME 法式餐廳",
      "address":"台中市中區民族路206號B1",
      "phone":"04-2220-8000",
      "latitude": "24.143205",
      "longitude": "120.675624",
      "time": "11:30–14:30,17:30–22:00,星期二公休"
    }
 ],
   "thaiFood": [
    {
      "name":"Woo Taiwan 米平方 國安店",
      "address":"台中市西屯區國安一路168號b1-5",
      "phone":"04-2462-1288",
      "latitude": "24.192040",
      "longitude": "120.611680",
      "time": "11:00–15:00,17:00–22:00"
    },
    {
      "name":"泰妃苑泰式料理",
      "address":"台中市西屯區西屯路三段166-46號",
      "phone":"04-2461-5937",
      "latitude": "24.189970",
      "longitude": "120.613874",
      "time": "11:30–14:30,17:00–21:30"
    },
    {
      "name":"泰芭朗泰式料理",
      "address":"台中市西屯區國安一路157號",
      "phone":"04-2461-1089",
      "latitude": "24.191605",
      "longitude": "120.612003",
      "time": "11:00–14:00,17:00–21:00"
    },
    {
      "name":"聯合泰式自助餐",
      "address":"台中市西屯區中工三路58號",
      "phone":"04-2350-9065",
      "latitude": "24.179824",
      "longitude": "120.619092",
      "time": "11:00–14:00,17:00–20:00,星期日公休"
    },
    {
      "name":"蘭那泰式餐廳 市政店",
      "address":"台中市西屯區朝富路298號",
      "phone":"04-3606-9500",
      "latitude": "24.161850",
      "longitude": "120.634761",
      "time": "11:00–14:00,17:00–22:00"
    },
    {
      "name":"瓦城泰國料理 台中三越店",
      "address":"台中市西屯區台灣大道三段301號",
      "phone":"04-2252-1733",
      "latitude": "24.165184",
      "longitude": "120.643887",
      "time": "11:00–22:00"
    },
    {
      "name":"金泰子泰式料理",
      "address":"台中市南屯區市政南二路189巷21號",
      "phone":"04-2255-6117",
      "latitude": "24.154651",
      "longitude": "120.635750",
      "time": "12:00–14:00,17:00–20:00"
    },
    {
      "name":"湄南河泰式庭園餐廳餐廳",
      "address":"台中市南屯區龍富十五路36號",
      "phone":"04-2386-2678",
      "latitude": "24.142918",
      "longitude": "120.633027",
      "time": "17:30–01:00"
    },
    {
      "name":"Thai Bistro泰常玖 泰式料理餐酒館",
      "address":"台中市南屯區大光街133號",
      "phone":"04-2320-6889",
      "latitude": "24.149574",
      "longitude": "120.647631",
      "time": "11:00–14:30,17:30–22:00,星期四公休"
    },
    {
      "name":"Thai Do Thai Restaurant",
      "address":"台中市南屯區大光街130號",
      "phone":"04-2320-8762",
      "latitude": "24.149578",
      "longitude": "120.647838",
      "time": "11:30–14:00,17:30–21:00"
    },
    {
      "name":"Thaï.J 泰式料理 大墩店",
      "address":"台中市南屯區台中市南屯區大墩路533號1樓",
      "phone":"04-2320-3597",
      "latitude": "24.149635",
      "longitude": "120.649656",
      "time": "11:00–22:00"
    },
    {
      "name":"二分之一泰式小館",
      "address":"台中市南屯區大墩十二街125號",
      "phone":"04-2329-7575",
      "latitude": "24.149878",
      "longitude": "120.652027",
      "time": "11:30–14:00,17:30–20:30"
    },
    {
      "name":"泰食尚泰式餐廳 大墩店",
      "address":"台中市南屯區大墩十一街291號",
      "phone":"04-2320-9567",
      "latitude": "24.148701",
      "longitude": "120.647908",
      "time": "11:00–14:00,17:00–22:00"
    },
    {
      "name":"泰華泰式料理餐廳",
      "address":"台中市南屯區大業路314號",
      "phone":"04-2327-0783",
      "latitude": "24.153872",
      "longitude": "120.647511",
      "time": "11:00–14:30,17:00–21:30"
    },
    {
      "name":"泰潮泰式料理",
      "address":"台中市南屯區黎明路一段1003號",
      "phone":"04-2382-0925",
      "latitude": "24.137510",
      "longitude": "120.637076",
      "time": "11:00–14:30,17:00–21:30"
    },
    {
      "name":"雲食泰風料理",
      "address":"台中市西區忠明南路406號",
      "phone":"04-2375-7715",
      "latitude": "24.135409",
      "longitude": "120.657165",
      "time": "NO TIME"
    },
    {
      "name":"泰鼎替拉朋泰國菜",
      "address":"台中市西區五權五街97號",
      "phone":"04-2378-0972",
      "latitude": "24.136512",
      "longitude": "120.660739",
      "time": "11:00–14:00,17:00–21:00"
    },
    {
      "name":"曼谷皇朝泰式餐廳",
      "address":"台中市西區向上路一段400號",
      "phone":"04-2320-6963",
      "latitude": "24.146805",
      "longitude": "120.655532",
      "time": "11:00–21:30,星期一公休"
    },
    {
      "name":"瓦城 勤美店",
      "address":"台中市西區公益路68號",
      "phone":"04-3609-1900",
      "latitude": "24.151055",
      "longitude": "120.663858",
      "time": "11:00–15:00,17:00–22:00"
    },
    {
      "name":"泰國麵王",
      "address":"台中市西區明義街9號",
      "phone":"04-2325-6786",
      "latitude": "24.154535",
      "longitude": "120.661256",
      "time": "11:00–14:30,17:00–21:00"
    },
    {
      "name":"朕泰林暹邏料理餐飲",
      "address":"台中市西屯區文華路138巷1-1號",
      "phone":"04-2451-1126",
      "latitude": "24.182907",
      "longitude": "120.645777",
      "time": "11:30–22:00"
    },
    {
      "name":"東萫來泰緬料理",
      "address":"台中市西屯區福上巷272號",
      "phone":"04-2451-6578",
      "latitude": "24.175127",
      "longitude": "120.645759",
      "time": "11:00–14:30,17:00–21:30"
    },
    {
      "name":"享泰多私宅料理",
      "address":"台中市西屯區福上巷270號",
      "phone":"04-2452-4929",
      "latitude": "24.175117",
      "longitude": "120.645837",
      "time": "11:30–14:30,17:00–21:30"
    },
    {
      "name":"金泰城泰式料理",
      "address":"台中市西屯區寶慶街50巷59號",
      "phone":"04-2452-2720",
      "latitude": "24.172434",
      "longitude": "120.647720",
      "time": "NO TIME"
    },
    {
      "name":"非常泰 VeryThai",
      "address":"台中市西屯區台灣大道三段251號北棟",
      "phone":"04-3609-5050",
      "latitude": "24.164708",
      "longitude": "120.644626",
      "time": "11:00–22:00"
    },
    {
      "name":"泰廣城泰式料理",
      "address":"台中市西屯區漢口路二段113號",
      "phone":"04-2311-1020",
      "latitude": "24.164942",
      "longitude": "120.660988",
      "time": "11:00–14:00,17:00–21:00,星期二公休"
    },
    {
      "name":"塔塔加泰式料理創始店",
      "address":"台中市西區西屯路一段147-1號",
      "phone":"04-2208-1000",
      "latitude": "24.152689",
      "longitude": "120.670966",
      "time": "11:30–14:30,17:30–21:30"
    },
    {
      "name":"曼谷小城泰式料理",
      "address":"台中市北區中清路一段471號",
      "phone":"04-2298-8801",
      "latitude": "24.166246",
      "longitude": "120.673374",
      "time": "11:00–21:30"
    },
    {
      "name":"泰小館Sam &Sherry's Tiny Thai",
      "address":"台中市北區五常街223號",
      "phone":"04-2207-6007",
      "latitude": "24.160234",
      "longitude": "120.679902",
      "time": "11:30–13:30,17:30–21:00,星期一公休"
    },
    {
      "name":"泰橋村梅亭店泰式料理",
      "address":"台中市北區梅亭街258號",
      "phone":"04-2236-1239",
      "latitude": "24.160393",
      "longitude": "120.681477",
      "time": "11:00–21:00,星期一公休"
    },
    {
      "name":"眉苗泰式料理",
      "address":"台中市北區五常街180號",
      "phone":"04-2202-8215",
      "latitude": "24.159386",
      "longitude": "120.680057",
      "time": "11:30–14:30,17:00–21:00,星期三公休"
    },
    {
      "name":"泰僑村",
      "address":"台中市北屯區河北路二段97號",
      "phone":"04-2231-1789",
      "latitude": "24.171581",
      "longitude": "120.683360",
      "time": "11:00–14:30,17:00–21:00,星期二公休"
    },
    {
      "name":"泰北料理",
      "address":"台中市北區興安路一段174號",
      "phone":"04-2232-8666",
      "latitude": "24.170668",
      "longitude": "120.694220",
      "time": "11:00–14:00,17:00–21:30"
    },
    {
      "name":"瓦城泰國料理 台中中友店",
      "address":"台中市北區三民路三段161號A棟12樓",
      "phone":"04-2220-5678",
      "latitude": "24.152228",
      "longitude": "120.684786",
      "time": "11:00–15:00,17:00–22:00"
    },
    {
      "name":"泰鄉味泰式料理",
      "address":"台中市北區三民路三段166-7號",
      "phone":"04-2225-9451",
      "latitude": "24.151933",
      "longitude": "120.685296",
      "time": "11:00–14:00,16:30–20:30"
    },
    {
      "name":"泰萊泰式料理",
      "address":"台中市北區雙十路一段85號",
      "phone":"04-2223-2158",
      "latitude": "24.146492",
      "longitude": "120.685955",
      "time": "11:00–21:00,星期三公休"
    },
    {
      "name":"洛查理 泰式料理",
      "address":"台中市東區振興路2之9號",
      "phone":"04-2229-5922",
      "latitude": "24.136550",
      "longitude": "120.689396",
      "time": "11:30–14:30,17:30–20:30"
    },
    {
      "name":"瓦城泰式料理 台中新時代",
      "address":"台中市東區復興路四段186號4號",
      "phone":"04-2220-8866",
      "latitude": "24.136230",
      "longitude": "120.687826",
      "time": "11:00–14:30,17:00–22:00"
    },
    {
      "name":"阿杜皇家泰式料理",
      "address":"台中市南屯區文心南路289號",
      "phone":"04-2473-9561",
      "latitude": "24.129647",
      "longitude": "120.646117",
      "time": "11:00–14:30,17:00–22:00"
    }
 ],
  "steak": [
    {
      "name":"阿蘭貝爾牛排廚房",
      "address":"台中市龍井區藝術街81巷5號",
      "phone":"04-2633-0987",
      "latitude": "24.187787",
      "longitude": "120.592635",
      "time": "11:00–14:00,17:00–21:00"
    },    
    {
      "name":"紅品炭烤牛排",
      "address":"台中市西屯區福雅路187號",
      "phone":"0923-108-595",
      "latitude": "24.188375",
      "longitude": "120.620640",
      "time": "17:00–23:45"
    },    
    {
      "name":"炫牛碳燒牛排館",
      "address":"台中市西屯區漢翔路520號",
      "phone":"04-2452-3999",
      "latitude": "24.185762",
      "longitude": "120.637803",
      "time": "11:30–14:00,17:00–02:00"
    },    
    {
      "name":"川布主題餐廳",
      "address":"台中市西屯區朝富二街1號",
      "phone":"04-2258-4443",
      "latitude": "24.167069",
      "longitude": "120.635980",
      "time": "11:30–22:00,星期一公休"
    },    
    {
      "name":"沃克牛排 台中朝富店",
      "address":"台中市西屯區朝富路100號",
      "phone":"04-2251-8677",
      "latitude": "24.165668",
      "longitude": "120.636798",
      "time": "11:30–15:00,17:30–22:00"
    },    
    {
      "name":"Boulevard 大道301 牛排",
      "address":"台中市西屯區台灣大道三段301號9樓",
      "phone":"04-2250-3636",
      "latitude": "24.165264",
      "longitude": "120.643706",
      "time": "11:00–15:00,17:30–22:00"
    },    
    {
      "name":"德州鮮切牛排台中店",
      "address":"台中市西屯區市政路581-6號",
      "phone":"04-2258-5395",
      "latitude": "24.160231",
      "longitude": "120.634638",
      "time": "11:30–23:00"
    },    
    {
      "name":"極炙牛排館",
      "address":"台中市西屯區市政路77號",
      "phone":"04-3705-6199#73200",
      "latitude": "24.156943",
      "longitude": "120.641834",
      "time": "11:30–14:30,18:00–23:00"
    },    
    {
      "name":"金磚極品牛排 (BRICS)",
      "address":"台中市西屯區惠中路二段57號",
      "phone":"04-2258-3979",
      "latitude": "24.155297",
      "longitude": "120.641120",
      "time": "11:30–14:00,17:30–21:30"
    },    
    {
      "name":"MEATGQ 橡木炙燒牛排館",
      "address":"台中市南屯區益豐路四段699號",
      "phone":"04-2383-0258",
      "latitude": "24.151020",
      "longitude": "120.628665",
      "time": "12:00–15:00,18:00–22:00"
    },    
    {
      "name":"雪莉牛排海鮮餐廳",
      "address":"台中市西區忠明南路238號",
      "phone":"04-2378-7910",
      "latitude": "24.141799",
      "longitude": "120.657092",
      "time": "11:30–14:30,17:30–22:00,星期三公休"
    },    
    {
      "name":"TGB很牛炭燒牛排 向上店",
      "address":"台中市南屯區向上路二段372號",
      "phone":"04-2380-2718",
      "latitude": "24.147218",
      "longitude": "120.638465",
      "time": "11:30–14:30,17:30–22:00"
    },    
    {
      "name":"泓品傳統牛排館",
      "address":"台中市北區台灣大道二段340號B1",
      "phone":"04-2322-0412",
      "latitude": "24.153873",
      "longitude": "120.666129",
      "time": "11:30–14:30,17:30–21:30"
    },    
    {
      "name":"Ruth's Chris Steak House",
      "address":"台中市西區臺灣大道二段501號26樓",
      "phone":"04-2323-2872",
      "latitude": "24.156309",
      "longitude": "120.660043",
      "time": "11:30–15:00,17:30–23:00"
    },    
    {
      "name":"王品牛排",
      "address":"台中市西屯區寧夏路233號",
      "phone":"04-2313-6430",
      "latitude": "24.170608",
      "longitude": "120.659100",
      "time": "11:30–14:30,17:30–22:00"
    },    
    {
      "name":"東海粉紅屋餐廳",
      "address":"台中市龍井區台中港路東園巷1弄25號",
      "phone":"04-2632-6067",
      "latitude": "24.182204",
      "longitude": "120.591005",
      "time": "11:00–23:00"
    },    
    {
      "name":"皮耶小館",
      "address":"台中市龍井區遠東街121號",
      "phone":"04-2631-0641",
      "latitude": "24.189779",
      "longitude": "120.593440",
      "time": "11:30–15:00,17:30–22:00"
    },    
    {
      "name":"PWF 琴•森林主題餐廳",
      "address":"台中市西屯區青海南街118號",
      "phone":"04-2451-5255",
      "latitude": "24.173966",
      "longitude": "120.635367",
      "time": "11:00–21:30"
    },    
    {
      "name":"無米藏 和洋食專門店",
      "address":"台中市南屯區干城街96號",
      "phone":"04-2254-5055",
      "latitude": "24.155654",
      "longitude": "120.631120",
      "time": "17:30–22:00,星期一.二.三公休"
    },    
    {
      "name":"永豐棧酒店穎餐廳",
      "address":"台中市西屯區台灣大道二段689號",
      "phone":"04-2326-8008",
      "latitude": "24.158926",
      "longitude": "120.655675",
      "time": "06:30–22:30"
    },    
    {
      "name":"TF想食廚房",
      "address":"台中市西區明義街81號",
      "phone":"04-2326-2132",
      "latitude": "24.155815",
      "longitude": "120.659061",
      "time": "11:30–14:30,17:30–22:00,星期二公休"
    },    
    {
      "name":"瑪莉亞廚房",
      "address":"台中市西區台中市西區公正路156巷26號",
      "phone":"0961-272-300",
      "latitude": "24.150140",
      "longitude": "120.660939",
      "time": "18:00–20:30,星期日.一公休"
    },    
    {
      "name":"里頌地中海餐酒館",
      "address":"台中市西區向上路一段79巷56號",
      "phone":"04-2301-6599",
      "latitude": "24.145404",
      "longitude": "120.664197",
      "time": "11:30–15:30,17:30–22:00,星期二公休"
    },    
    {
      "name":"OMAKASE．任信 無菜單料理",
      "address":"台中市西區五權一街99號",
      "phone":"04-2371-1666",
      "latitude": "24.139228",
      "longitude": "120.658930",
      "time": "17:30–22:30,星期二公休"
    },    
    {
      "name":"斐麗巴黎廳",
      "address":"台中市西區五權西六街20巷2號",
      "phone":"04-2376-8089",
      "latitude": "24.139013",
      "longitude": "120.658647",
      "time": "11:30–14:30,17:30–21:30"
    },    
    {
      "name":"Patio Restaurant",
      "address":"台中市西區五權一街91號",
      "phone":"04-2378-1160",
      "latitude": "24.139179",
      "longitude": "120.659637",
      "time": "11:30–01:00"
    },    
    {
      "name":"幸福甜西餐廳",
      "address":"台中市中區市府路14號",
      "phone":"04-2229-5058",
      "latitude": "24.139283",
      "longitude": "120.679882",
      "time": "11:30–14:00,14:30–16:30,17:00–20:30"
    },    
    {
      "name":"Mia+料理",
      "address":"台中市北區青島一街83號",
      "phone":"04-2292-1568",
      "latitude": "24.173162",
      "longitude": "120.674950",
      "time": "08:30–15:30,17:30–21:30,星期一公休"
    },    
    {
      "name":"forchetta 餐廳",
      "address":"台中市西屯區惠中七街36號",
      "phone":"04-2255-8111",
      "latitude": "24.161081",
      "longitude": "120.642224",
      "time": "12:00–14:30,18:00–21:30"
    },    
    {
      "name":"潘朵拉之宴",
      "address":"台中市南屯區公益路二段21號",
      "phone":"04-2320-1880",
      "latitude": "24.150738",
      "longitude": "120.651950",
      "time": "11:00–16:00,17:00–22:00"
    },    
    {
      "name":"Simply炙烤牛排餐廳",
      "address":"台中市西區存中街22之1號",
      "phone":"04-2372-8668",
      "latitude": "24.141661",
      "longitude": "120.660082",
      "time": "11:30–15:00,18:00–22:00"
    },    
    {
      "name":"Top of ONE頂餐廳",
      "address":"台中市西區英才路532號",
      "phone":"04-2303-1234",
      "latitude": "24.149907",
      "longitude": "120.664881",
      "time": "11:30–17:00,18:00–22:00"
    },    
    {
      "name":"Mr.Onion 台中SOGO店",
      "address":"台中市西區台灣大道二段459號",
      "phone":"04-2329-1557",
      "latitude": "24.155481",
      "longitude": "120.661891",
      "time": "11:00–22:00"
    }
  ],
  "americanFood": [
    {
      "name":"Feedme美式餐廳 東海店",
      "address":"台中市龍井區台灣大道六段5段63號",
      "phone":"04-2631-8687",
      "latitude": "24.183874",
      "longitude": "120.590792",
      "time": "17:00–22:00"
    },
    {
      "name":"Lettuce 雷特斯 美式漢堡",
      "address":"台中市龍井區新興路5巷2號",
      "phone":"0903-242-887",
      "latitude": "24.181169",
      "longitude": "120.591856",
      "time": "11:00–15:00,17:00–21:30,星期一公休"
    },
    {
      "name":"痴堡美式餐廳",
      "address":"台中市龍井區新興路29號",
      "phone":"04-2652-0811",
      "latitude": "24.180600",
      "longitude": "120.589207",
      "time": "11:00–15:00,17:00–21:30,星期一公休"
    },
    {
      "name":"GOTCHA BBQ",
      "address":"台中市西屯區福順路877號",
      "phone":"0902-383-877",
      "latitude": "24.185899",
      "longitude": "120.607477",
      "time": "12:00–14:00,18:00–21:00,星期日.一公休"
    },
    {
      "name":"夏爾 Shire",
      "address":"台中市西屯區國安一路208巷10號",
      "phone":"04-2461-6686",
      "latitude": "24.192957",
      "longitude": "120.610290",
      "time": "09:00–15:00,17:00–21:00"
    },
    {
      "name":"小紐約 Little New York Cafe'",
      "address":"台中市西屯區西屯路三段166-83號",
      "phone":"04-2461-5970",
      "latitude": "24.190713",
      "longitude": "120.612059",
      "time": "10:00–21:00"
    },
    {
      "name":"Amazing Amy 美式麻辣海鮮",
      "address":"台中市西屯區安和路83-10號",
      "phone":"04-2358-5372",
      "latitude": "24.168392",
      "longitude": "120.619226",
      "time": "18:00–00:00,星期一公休"
    },
    {
      "name":"Burger Joint 7分SO 朝富店",
      "address":"台中市西屯區朝富路252號",
      "phone":"04-2252-3309",
      "latitude": "24.163395",
      "longitude": "120.635337",
      "time": "08:30–22:00"
    },
    {
      "name":"樂檸漢堡餐廳 老虎城門市",
      "address":"台中市西屯區河南路三段120號",
      "phone":"04-3606-2563",
      "latitude": "24.164439",
      "longitude": "120.637652",
      "time": "11:00–21:30"
    },
    {
      "name":"龍波斯特 老虎城店",
      "address":"台中市西屯區河南路三段120號",
      "phone":"04-2251-2596",
      "latitude": "24.164119",
      "longitude": "120.638069",
      "time": "NO TIME"
    },
    {
      "name":"德州鮮切牛排 台中店",
      "address":"台中市西屯區市政路581-6號",
      "phone":"04-2258-5395",
      "latitude": "24.160232",
      "longitude": "120.634634",
      "time": "11:30–23:00"
    },
    {
      "name":"三號創意料理廚房",
      "address":"台中市西屯區福星路526巷3號",
      "phone":"04-2700-3613",
      "latitude": "24.176666",
      "longitude": "120.644786",
      "time": "17:00–23:00,星期一.二公休"
    },
    {
      "name":"LETTUCE",
      "address":"台中市西屯區福上巷329號",
      "phone":"0987-078-982",
      "latitude": "24.175121",
      "longitude": "120.645493",
      "time": "11:30–15:00,17:00–22:00"
    },
    {
      "name":"LV 5.5 新世界樂園",
      "address":"台中市西屯區西屯路二段32-10號",
      "phone":"04-2316-8405",
      "latitude": "24.164560",
      "longitude": "120.659591",
      "time": "11:30–21:30"
    },
    {
      "name":"TGI FRIDAYS 市政店",
      "address":"台中市西屯區市政路16號",
      "phone":"04-2252-3579",
      "latitude": "24.156096",
      "longitude": "120.645584",
      "time": "11:30–00:00"
    },
    {
      "name":"貳樓餐廳 公益店",
      "address":"台中市南屯區公益路二段172號",
      "phone":"04-2327-2527",
      "latitude": "24.150990",
      "longitude": "120.647427",
      "time": "09:00–22:30"
    },
    {
      "name":"3mins美式餐廳",
      "address":"台中市西區精誠路55號",
      "phone":"04-2310-5556",
      "latitude": "24.152571",
      "longitude": "120.655173",
      "time": "11:00–21:00,星期二公休"
    },
    {
      "name":"雙城美式餐廳",
      "address":"台中市西屯區華美街480巷1號",
      "phone":"04-2326-0429",
      "latitude": "24.155381",
      "longitude": "120.660575",
      "time": "07:00–22:00"
    },
    {
      "name":"BurgerJoint 7分SO 華美店",
      "address":"台中市西區華美街410號",
      "phone":"04-2326-7339",
      "latitude": "24.153658",
      "longitude": "120.659156",
      "time": "08:30–22:00"
    },
    {
      "name":"龐德羅莎牛排沙拉",
      "address":"台中市西區台灣大道二段318號",
      "phone":"04-2322-0662",
      "latitude": "24.153650",
      "longitude": "120.666512",
      "time": "11:30–15:30,17:30–20:30"
    },
    {
      "name":"TGI FRIDAYS 英才店",
      "address":"台中市西區台灣大道二段239之1號",
      "phone":"04-2322-7769",
      "latitude": "24.152627",
      "longitude": "120.666406",
      "time": "11:30–23:00"
    },
    {
      "name":"鐵皮駅餐廳",
      "address":"台中市西區向上北路106號",
      "phone":"04-2301-9859",
      "latitude": "24.147957",
      "longitude": "120.663951",
      "time": "11:30–21:00,星期二公休"
    },
    {
      "name":"Hot Shock 哈燒庫美式餐廳",
      "address":"台中市西區向上北路109號",
      "phone":"04-2305-1589",
      "latitude": "24.147836",
      "longitude": "120.663848",
      "time": "11:00–14:30,17:00–22:30"
    },
    {
      "name":"Fidèle妃黛 美式海鮮餐廳",
      "address":"台中市西區自立街117號",
      "phone":"04-2375-6513",
      "latitude": "24.142320",
      "longitude": "120.668471",
      "time": "11:00–14:00,17:00–20:30"
    },
    {
      "name":"offer make造堡 逢甲店",
      "address":"台中市西屯區文華路150巷26號",
      "phone":"04-2452-2215",
      "latitude": "24.183128",
      "longitude": "120.646803",
      "time": "11:30–14:30,17:30–21:30"
    },
    {
      "name":"LETTUCE 逢甲店",
      "address":"台中市西屯區福上巷329號",
      "phone":"0987-078-982",
      "latitude": "24.175154",
      "longitude": "120.645478",
      "time": "11:30–15:00,17:00–22:00"
    },
    {
      "name":"Nola Kitchen紐澳良小廚",
      "address":"台中市北屯區崇德五路192號",
      "phone":"04-2242-7662",
      "latitude": "24.179214",
      "longitude": "120.685657",
      "time": "11:30–22:00"
    },
    {
      "name":"瘦子漢堡 Skinny Burger",
      "address":"台中市北屯區文昌東五街41號",
      "phone":"04-2234-0399",
      "latitude": "24.171189",
      "longitude": "120.684540",
      "time": "09:30–20:30,星期三公休"
    },
    {
      "name":"Burger Joint 7分so 崇德店",
      "address":"台中市北區崇德路一段518號",
      "phone":"04-2237-3939",
      "latitude": "24.165915",
      "longitude": "120.685241",
      "time": "08:30–22:00"
    },
    {
      "name":"Emma's Cafe",
      "address":"台中市北區學士路196巷9號",
      "phone":"04-2236-2266",
      "latitude": "24.160010",
      "longitude": "120.681662",
      "time": "09:00–22:00"
    },
    {
      "name":"TG義美式餐廳",
      "address":"台中市北區錦平街50巷10號",
      "phone":"04-2225-3172",
      "latitude": "24.152426",
      "longitude": "120.683379",
      "time": "11:00–21:00,星期四公休"
    },
    {
      "name":"echo艾可先生漢堡餐廳",
      "address":"台中市北區一中街101號",
      "phone":"04-2225-3778",
      "latitude": "24.150278",
      "longitude": "120.685368",
      "time": "11:30–22:00"
    },
    {
      "name":"先吃肉-Meat First漢堡",
      "address":"台中市北區一中街112號2樓",
      "phone":"0910-746-569",
      "latitude": "24.152753",
      "longitude": "120.686538",
      "time": "11:30–15:30,17:00–21:30,星期一公休"
    },
    {
      "name":"堡彪專業美式漢堡",
      "address":"台中市中區民族路239號",
      "phone":"04-2221-1117",
      "latitude": "24.143625",
      "longitude": "120.674950",
      "time": "11:00–20:30"
    },
    {
      "name":"傻子漢堡 Pash Burger",
      "address":"台中市西區林森路212-3號",
      "phone":"04-2375-9113",
      "latitude": "24.140554",
      "longitude": "120.667630",
      "time": "08:00–20:00,星期一公休"
    },
    {
      "name":"牛逼館子",
      "address":"台中市西區五權一街64號",
      "phone":"04-2372-2313",
      "latitude": "24.139466",
      "longitude": "120.663354",
      "time": "11:00–15:30,17:30–21:00,星期一公休"
    },
    {
      "name":"Hungry Jacob愛吃借口火烤漢堡",
      "address":"台中市西區昇平街9號",
      "phone":"04-2305-2700",
      "latitude": "24.145456",
      "longitude": "120.663979",
      "time": "11:00–21:00,星期一公休"
    },
    {
      "name":"七分So漢堡店",
      "address":"台中市西區華美街410號",
      "phone":"04-2326-7339",
      "latitude": "24.153612",
      "longitude": "120.659151",
      "time": "NO TIME"
    },
    {
      "name":"比時地美式漢堡炸雞",
      "address":"台中市北區健行路811號",
      "phone":"04-2207-0300",
      "latitude": "24.159167",
      "longitude": "120.671173",
      "time": "11:00–21:00,星期一.四公休"
    },
    {
      "name":"Stay Gold 初心手作漢堡",
      "address":"台中市北屯區軍功東街91號",
      "phone":"04-2437-4121",
      "latitude": "24.172319",
      "longitude": "120.719439",
      "time": "11:30–21:00,星期一公休"
    },
    {
      "name":"offer make造堡 逢甲",
      "address":"台中市西屯區文華路150巷26號",
      "phone":"04-2452-2215",
      "latitude": "24.183120",
      "longitude": "120.646801",
      "time": "11:30–14:30,17:30–21:30"
    }
  ],
  "pizza": [
    {
      "name":"奇諾披薩Ginno Pizza",
      "address":"台中市西屯區國際街10號",
      "phone":"0986-601-703",
      "latitude": "24.183836",
      "longitude": "120.593507",
      "time": "11:00–14:30,16:30–21:00,星期一公休"
    },
    {
      "name":"披薩工廠 中科店",
      "address":"台中市西屯區福林路86號",
      "phone":"04-2461-1743",
      "latitude": "24.186316",
      "longitude": "120.614665",
      "time": "11:30–15:00,17:00–21:30"
    },
    {
      "name":"Pizza Rock 中港店",
      "address":"台中市西屯區台灣大道780號",
      "phone":"04-2463-8928",
      "latitude": "24.180757",
      "longitude": "120.620539",
      "time": "11:30–21:30"
    },
    {
      "name":"貴客披薩燒烤 逢甲店",
      "address":"台中市西屯區河南路二段492-1號",
      "phone":"04-2707-3868",
      "latitude": "24.170107",
      "longitude": "120.642856",
      "time": "10:00–14:00,16:30–20:30"
    },
    {
      "name":"Pizza Rock 文心店",
      "address":"台中市西屯區文心路三段224號",
      "phone":"04-2316-2528",
      "latitude": "24.169239",
      "longitude": "120.656134",
      "time": "11:30–21:30"
    },
    {
      "name":"披薩工廠 公益店",
      "address":"台中市南屯區公益路二段637號",
      "phone":"04-2389-5773",
      "latitude": "24.150778",
      "longitude": "120.633028",
      "time": "11:30–14:30,17:00–22:00"
    },
    {
      "name":"薄多義手工披薩",
      "address":"台中市南屯區公益路二段132號",
      "phone":"04-2326-1515",
      "latitude": "24.151015",
      "longitude": "120.648648",
      "time": "11:30–17:00,17:30–21:30"
    },
    {
      "name":"Tino's Pizza Cafe 大墩店",
      "address":"台中市南屯區大墩路632-5號",
      "phone":"04-2325-5757",
      "latitude": "24.150462",
      "longitude": "120.649929",
      "time": "11:00–21:30"
    },
    {
      "name":"Salut比薩店",
      "address":"台中市西區大業路25-9號",
      "phone":"04-2310-3541",
      "latitude": "24.152993",
      "longitude": "120.654286",
      "time": "17:30–23:30,星期一公休"
    },
    {
      "name":"Elite Pizza 依禮鮮蔬手工披薩",
      "address":"台中市西區東興路三段81號",
      "phone":"04-2320-8090",
      "latitude": "24.147550",
      "longitude": "120.652825",
      "time": "10:00–19:00"
    },
    {
      "name":"義波羅窯烤披薩",
      "address":"台中市西區中興街106號",
      "phone":"04-2301-6118",
      "latitude": "24.147750",
      "longitude": "120.663142",
      "time": "11:30–14:00,17:00–21:00,星期一公休"
    },
    {
      "name":"Pisa Pizza",
      "address":"台中市西區健行路1013號",
      "phone":"04-2326-9819",
      "latitude": "24.157093",
      "longitude": "120.663674",
      "time": "11:30–22:00"
    },
    {
      "name":"Marbledot Cafe 窯烤拿坡里披薩",
      "address":"台中市西區大忠南街54號",
      "phone":"04-2376-2660",
      "latitude": "24.140645",
      "longitude": "120.655670",
      "time": "11:30–16:00,星期一公休"
    },
    {
      "name":"多波啦啦手工披薩",
      "address":"台中市北區錦新街15-1號",
      "phone":"04-2225-2661",
      "latitude": "24.152615",
      "longitude": "120.687891",
      "time": "11:00–21:30,星期一公休"
    },
    {
      "name":"MK義式廚坊 東海店",
      "address":"台中市龍井區新興路31號之4號",
      "phone":"04-2631-0052",
      "latitude": "24.180522",
      "longitude": "120.588579",
      "time": "11:00–14:30,17:00–21:30"
    },
    {
      "name":"Bengodi義式首創料理",
      "address":"台中市龍井區新興路15巷5號",
      "phone":"04-2631-4063",
      "latitude": "24.180541",
      "longitude": "120.590484",
      "time": "11:30–14:30,17:00–21:30,星期二公休"
    },
    {
      "name":"佛羅倫斯 東海店",
      "address":"台中市龍井區藝術街38巷14號",
      "phone":"04-2633-6051",
      "latitude": "24.188132",
      "longitude": "120.594277",
      "time": "11:00–21:00"
    },
    {
      "name":"杯子和糖 義式餐廳",
      "address":"台中市龍井區藝術街40號",
      "phone":"04-2631-0089",
      "latitude": "24.187749",
      "longitude": "120.594109",
      "time": "11:00–20:00,星期一公休"
    },
    {
      "name":"吉兒義式花園餐廳",
      "address":"台中市西屯區福科路637號",
      "phone":"04-2463-3658",
      "latitude": "24.186747",
      "longitude": "120.612252",
      "time": "11:00–15:30,17:00–21:00"
    },
    {
      "name":"milano米蘭街義式小館",
      "address":"台中市西屯區西屯路三段247號",
      "phone":"04-2461-3807",
      "latitude": "24.189928",
      "longitude": "120.613430",
      "time": "11:00–22:00"
    },
    {
      "name":"wow bene 法貝諾義式小館",
      "address":"台中市西屯區福雅里福雅路106號1樓",
      "phone":"04-2461-3809",
      "latitude": "24.185125",
      "longitude": "120.619299",
      "time": "11:00–22:00"
    },
    {
      "name":"菲菲花園‧義式餐廳 文心店",
      "address":"台中市西屯區大墩十八街197號",
      "phone":"04-2310-1886",
      "latitude": "24.158028",
      "longitude": "120.647554",
      "time": "11:30–14:30,17:30–22:00"
    },
    {
      "name":"西西里義式麵食館",
      "address":"台中市南屯區黎明路二段484號",
      "phone":"04-2251-4409",
      "latitude": "24.152922",
      "longitude": "120.635015",
      "time": "11:30–14:30,17:00–21:00,星期一公休"
    },
    {
      "name":"Dolce逗趣義式餐館",
      "address":"台中市南屯區黎明路二段361號",
      "phone":"04-2255-2289",
      "latitude": "24.150403",
      "longitude": "120.635213",
      "time": "11:30–14:30,17:00–21:30"
    },
    {
      "name":"古拉爵 台中家樂福文心店",
      "address":"台中市南屯區文心路一段521號",
      "phone":"04-2254-4835",
      "latitude": "24.154210",
      "longitude": "120.646294",
      "time": "11:00–22:00"
    },
    {
      "name":"阿米奇義式廚房餐廳",
      "address":"台中市西屯區精明二街33號",
      "phone":"04-2327-2488",
      "latitude": "24.156847",
      "longitude": "120.655504",
      "time": "11:00–23:30"
    },
    {
      "name":"小蕃茄義式創意廚房",
      "address":"台中市西屯區精明一街22號",
      "phone":"04-2320-8153",
      "latitude": "24.157027",
      "longitude": "120.656229",
      "time": "11:30–14:00,17:20–20:30,星期一公休"
    },
    {
      "name":"亞丁尼義式麵屋 精誠店",
      "address":"台中市西區精誠路177號",
      "phone":"04-2328-6060",
      "latitude": "24.149022",
      "longitude": "120.655298",
      "time": "11:00–21:00"
    },
    {
      "name":"波西塔諾義式小館",
      "address":"台中市西區忠誠街108號",
      "phone":"04-2328-6599",
      "latitude": "24.152607",
      "longitude": "120.659189",
      "time": "11:30–15:00,17:30–21:00,星期一公休"
    },
    {
      "name":"藍洞意式廚房",
      "address":"台中市西區向上北路127號",
      "phone":"04-2302-6545",
      "latitude": "24.147819",
      "longitude": "120.663473",
      "time": "10:00–14:30,17:30–21:30"
    },
    {
      "name":"弈品義式創意料理餐廳",
      "address":"台中市西區福人街138號",
      "phone":"04-2378-1939",
      "latitude": "24.143056",
      "longitude": "120.656888",
      "time": "11:00–14:00,17:00–21:00,星期二公休"
    },
    {
      "name":"CARBONE南義式手工披薩",
      "address":"台中市西區存中街24號",
      "phone":"04-2376-5258",
      "latitude": "24.141676",
      "longitude": "120.659965",
      "time": "11:30–14:30,17:00–21:00"
    },
    {
      "name":"Tapioca 榙比歐卡",
      "address":"台中市西區五權一街116號",
      "phone":"04-2372-1388",
      "latitude": "24.139410",
      "longitude": "120.660258",
      "time": "08:30–18:00,星期三公休"
    },
    {
      "name":"BATTIS風味義式小館",
      "address":"台中市西區自治街181號",
      "phone":"04-2376-0310",
      "latitude": "24.142461",
      "longitude": "120.666631",
      "time": "11:30–14:30,17:30–21:30,星期一公休"
    },
    {
      "name":"Vero 米若餐酒館",
      "address":"台中市西區向上北路113號",
      "phone":"04-2301-0963",
      "latitude": "24.147825",
      "longitude": "120.663760",
      "time": "10:00–15:00,17:00–22:00,星期一公休"
    },
    {
      "name":"尼洛廚坊 義式料理",
      "address":"台中市南屯區東興路二段4號",
      "phone":"04-2473-7770",
      "latitude": "24.135914",
      "longitude": "120.653085",
      "time": "11:00–14:30,17:00–21:00,星期一公休"
    },
    {
      "name":"斑馬線義式廚房",
      "address":"台中市西屯區文華路127巷5號",
      "phone":"0938-821-200",
      "latitude": "24.180430",
      "longitude": "120.645970",
      "time": "11:00–21:00"
    },
    {
      "name":"雙門洞義式美食館",
      "address":"台中市西屯區智惠街135號",
      "phone":"04-2705-6005",
      "latitude": "24.170032",
      "longitude": "120.643714",
      "time": "11:30–17:00"
    },
    {
      "name":"灰房子 義式料理",
      "address":"台中市北區三民路三段201巷30號",
      "phone":"04-2220-0039",
      "latitude": "24.153606",
      "longitude": "120.684651",
      "time": "11:00–21:30"
    },
    {
      "name":"諾諾索 義式料理",
      "address":"台中市北區五權路500巷6弄19號",
      "phone":"04-2225-5101",
      "latitude": "24.152819",
      "longitude": "120.683426",
      "time": "11:30–21:00"
    },
    {
      "name":"古拉爵 台中中友店",
      "address":"台中市北區三民路三段161號",
      "phone":"04-2223-2907",
      "latitude": "24.151791",
      "longitude": "120.684749",
      "time": "11:30–21:45"
    },
    {
      "name":"帕達諾義廚",
      "address":"台中市北區梅亭街303號",
      "phone":"04-2203-0533",
      "latitude": "24.160304",
      "longitude": "120.680175",
      "time": "11:00–14:30,17:30–21:30,星期四公休"
    },
    {
      "name":"好食遇義式料理",
      "address":"台中市北區山西路二段211號",
      "phone":"04-2299-3009",
      "latitude": "24.172762",
      "longitude": "120.675911",
      "time": "11:30–15:00,17:30–21:00,星期二公休"
    },
    {
      "name":"Annie's House義式餐廳",
      "address":"台中市南區復興北路328號",
      "phone":"04-2265-2033",
      "latitude": "24.120121",
      "longitude": "120.655104",
      "time": "10:30–21:00,星期一公休"
    },
    {
      "name":"米爵義式美食廚坊",
      "address":"台中市南區忠明南路790號",
      "phone":"04-2261-1780",
      "latitude": "24.122288",
      "longitude": "120.660585",
      "time": "11:30–14:30,17:00–21:30,星期一公休"
    },
    {
      "name":"小John廚義式創意料理",
      "address":"台中市大里區東榮路398號",
      "phone":"04-2482-1879",
      "latitude": "24.110205",
      "longitude": "120.682927",
      "time": "11:30–14:30,17:00–21:00,星期二公休"
    }
  ]
}
